[
    {
        "No.": "1",
        "共通ID": "E2321100124201",
        "name": "幸海小学校",
        "address": "愛知県豊田市幸海町下御堂下切14-1",
        "latitude": "35.082823",
        "longitude": "137.231518"
    },
    {
        "No.": "2",
        "共通ID": "E2323700001201",
        "name": "下萱津コミュニティ防災センター",
        "address": "愛知県あま市下萱津山伏8",
        "latitude": "35.18155997",
        "longitude": "136.8394178"
    },
    {
        "No.": "3",
        "共通ID": "E2323700002201",
        "name": "美和文化会館西側駐車場",
        "address": "愛知県あま市花正地先1-1",
        "latitude": "35.20443952",
        "longitude": "136.7835786"
    },
    {
        "No.": "4",
        "共通ID": "E2323700002202",
        "name": "美和文化会館",
        "address": "愛知県あま市花正地先1-1",
        "latitude": "35.20409367",
        "longitude": "136.7844912"
    },
    {
        "No.": "5",
        "共通ID": "E2323700003201",
        "name": "美和保健センター",
        "address": "愛知県あま市花正中之割2",
        "latitude": "35.20129071",
        "longitude": "136.7842811"
    },
    {
        "No.": "6",
        "共通ID": "E2323700004201",
        "name": "坂牧コミュニティ防災センター",
        "address": "愛知県あま市坂牧阿原25",
        "latitude": "35.18292755",
        "longitude": "136.8302371"
    },
    {
        "No.": "7",
        "共通ID": "E2323700005201",
        "name": "七宝公民館",
        "address": "愛知県あま市七宝町安松小新田2337",
        "latitude": "35.17139745",
        "longitude": "136.7967898"
    },
    {
        "No.": "8",
        "共通ID": "E2323700006201",
        "name": "伊福小学校グラウンド",
        "address": "愛知県あま市七宝町伊福河原28",
        "latitude": "35.15601526",
        "longitude": "136.7938902"
    },
    {
        "No.": "9",
        "共通ID": "E2323700006202",
        "name": "伊福小学校",
        "address": "愛知県あま市七宝町伊福河原28",
        "latitude": "35.15663355",
        "longitude": "136.7939588"
    },
    {
        "No.": "10",
        "共通ID": "E2323700007201",
        "name": "七宝総合体育館",
        "address": "愛知県あま市七宝町伊福宮東3-1",
        "latitude": "35.16062978",
        "longitude": "136.7970983"
    },
    {
        "No.": "11",
        "共通ID": "E2323700007202",
        "name": "七宝総合体育館駐車場",
        "address": "愛知県あま市七宝町伊福宮東3-1",
        "latitude": "35.16042828",
        "longitude": "136.7980074"
    },
    {
        "No.": "12",
        "共通ID": "E2323700008201",
        "name": "七宝焼アートヴィレッジ",
        "address": "愛知県あま市七宝町遠島十三割2000",
        "latitude": "35.18367277",
        "longitude": "136.7992259"
    },
    {
        "No.": "13",
        "共通ID": "E2323700009201",
        "name": "七宝北中学校グラウンド",
        "address": "愛知県あま市七宝町遠島十坪117",
        "latitude": "35.18534329",
        "longitude": "136.7989348"
    },
    {
        "No.": "14",
        "共通ID": "E2323700009202",
        "name": "七宝北中学校",
        "address": "愛知県あま市七宝町遠島十坪117",
        "latitude": "35.18564143",
        "longitude": "136.7992889"
    },
    {
        "No.": "15",
        "共通ID": "E2323700010202",
        "name": "宝小学校",
        "address": "愛知県あま市七宝町遠島大切戸1296",
        "latitude": "35.18300579",
        "longitude": "136.8065842"
    },
    {
        "No.": "16",
        "共通ID": "E2323700010201",
        "name": "宝小学校グラウンド",
        "address": "愛知県あま市七宝町遠島大切戸1296",
        "latitude": "35.18266819",
        "longitude": "136.8073137"
    },
    {
        "No.": "17",
        "共通ID": "E2323700011201",
        "name": "七宝小学校グラウンド",
        "address": "愛知県あま市七宝町桂角田1777",
        "latitude": "35.17054265",
        "longitude": "136.7977035"
    },
    {
        "No.": "18",
        "共通ID": "E2323700011202",
        "name": "七宝小学校",
        "address": "愛知県あま市七宝町桂角田1777",
        "latitude": "35.17112148",
        "longitude": "136.7976927"
    },
    {
        "No.": "19",
        "共通ID": "E2323700012201",
        "name": "七宝グラウンド",
        "address": "愛知県あま市七宝町桂弥勒28",
        "latitude": "35.16456876",
        "longitude": "136.7955062"
    },
    {
        "No.": "20",
        "共通ID": "E2323700012202",
        "name": "七宝保健センター",
        "address": "愛知県あま市七宝町桂弥勒28",
        "latitude": "35.16496339",
        "longitude": "136.7958083"
    },
    {
        "No.": "21",
        "共通ID": "E2323700013201",
        "name": "秋竹小学校グラウンド",
        "address": "愛知県あま市七宝町秋竹中道358",
        "latitude": "35.17550481",
        "longitude": "136.803451"
    },
    {
        "No.": "22",
        "共通ID": "E2323700013202",
        "name": "秋竹小学校",
        "address": "愛知県あま市七宝町秋竹中道358",
        "latitude": "35.17585045",
        "longitude": "136.8036486"
    },
    {
        "No.": "23",
        "共通ID": "E2323700014201",
        "name": "七宝中学校グラウンド",
        "address": "愛知県あま市七宝町川部山王4",
        "latitude": "35.17099431",
        "longitude": "136.7953896"
    },
    {
        "No.": "24",
        "共通ID": "E2323700014202",
        "name": "七宝中学校",
        "address": "愛知県あま市七宝町川部山王4",
        "latitude": "35.17128372",
        "longitude": "136.7953842"
    },
    {
        "No.": "25",
        "共通ID": "E2323700015201",
        "name": "七宝鷹居グラウンド",
        "address": "愛知県あま市七宝町鷹居5-2",
        "latitude": "35.15988476",
        "longitude": "136.7874345"
    },
    {
        "No.": "26",
        "共通ID": "E2323700016201",
        "name": "篠田防災コミュニティセンター",
        "address": "愛知県あま市篠田3-51",
        "latitude": "35.18705782",
        "longitude": "136.7775488"
    },
    {
        "No.": "27",
        "共通ID": "E2323700017202",
        "name": "篠田小学校",
        "address": "愛知県あま市篠田十王堂59",
        "latitude": "35.18690265",
        "longitude": "136.7815488"
    },
    {
        "No.": "28",
        "共通ID": "E2323700017201",
        "name": "篠田小学校グラウンド",
        "address": "愛知県あま市篠田十王堂59",
        "latitude": "35.18665714",
        "longitude": "136.7815542"
    },
    {
        "No.": "29",
        "共通ID": "E2323700018201",
        "name": "上萱津コミュニティ防災センター",
        "address": "愛知県あま市上萱津上野87",
        "latitude": "35.19213587",
        "longitude": "136.8393912"
    },
    {
        "No.": "30",
        "共通ID": "E2323700018202",
        "name": "上萱津コミュニティ防災センター南公用地",
        "address": "愛知県あま市上萱津上野87",
        "latitude": "35.19184209",
        "longitude": "136.8394385"
    },
    {
        "No.": "31",
        "共通ID": "E2323700019201",
        "name": "新居屋防災センター",
        "address": "愛知県あま市新居屋江上田14-28",
        "latitude": "35.19238423",
        "longitude": "136.8090958"
    },
    {
        "No.": "32",
        "共通ID": "E2323700020202",
        "name": "甚目寺西小学校",
        "address": "愛知県あま市新居屋三反通11",
        "latitude": "35.19808096",
        "longitude": "136.8153191"
    },
    {
        "No.": "33",
        "共通ID": "E2323700020201",
        "name": "甚目寺西小学校グラウンド",
        "address": "愛知県あま市新居屋三反通11",
        "latitude": "35.19779164",
        "longitude": "136.815303"
    },
    {
        "No.": "34",
        "共通ID": "E2323700021201",
        "name": "甚目寺西児童館（新居屋憩の家）",
        "address": "愛知県あま市新居屋東高田58",
        "latitude": "35.19769789",
        "longitude": "136.8116528"
    },
    {
        "No.": "35",
        "共通ID": "E2323700022201",
        "name": "甚目寺北児童館（森憩の家）",
        "address": "愛知県あま市森2-6-2",
        "latitude": "35.2094513",
        "longitude": "136.8135913"
    },
    {
        "No.": "36",
        "共通ID": "E2323700023201",
        "name": "森グラウンド",
        "address": "愛知県あま市森2-6-4",
        "latitude": "35.20908886",
        "longitude": "136.8141912"
    },
    {
        "No.": "37",
        "共通ID": "E2323700024201",
        "name": "森ケ丘公園",
        "address": "愛知県あま市森4-6",
        "latitude": "35.21041188",
        "longitude": "136.8107234"
    },
    {
        "No.": "38",
        "共通ID": "E2323700025202",
        "name": "甚目寺小学校",
        "address": "愛知県あま市甚目寺寺西40",
        "latitude": "35.1952718",
        "longitude": "136.8215957"
    },
    {
        "No.": "39",
        "共通ID": "E2323700025201",
        "name": "甚目寺小学校グラウンド",
        "address": "愛知県あま市甚目寺寺西40",
        "latitude": "35.19500005",
        "longitude": "136.8215804"
    },
    {
        "No.": "40",
        "共通ID": "E2323700026201",
        "name": "甚目寺南防災センター",
        "address": "愛知県あま市甚目寺須原20",
        "latitude": "35.18877494",
        "longitude": "136.8186904"
    },
    {
        "No.": "41",
        "共通ID": "E2323700027201",
        "name": "甚目寺会館",
        "address": "愛知県あま市甚目寺東大門8",
        "latitude": "35.19339729",
        "longitude": "136.8234184"
    },
    {
        "No.": "42",
        "共通ID": "E2323700028201",
        "name": "甚目寺公民館",
        "address": "愛知県あま市甚目寺二伴田65",
        "latitude": "35.20002672",
        "longitude": "136.8222488"
    },
    {
        "No.": "43",
        "共通ID": "E2323700029202",
        "name": "甚目寺中学校",
        "address": "愛知県あま市甚目寺二伴田76",
        "latitude": "35.19994435",
        "longitude": "136.8204526"
    },
    {
        "No.": "44",
        "共通ID": "E2323700029201",
        "name": "甚目寺中学校グラウンド",
        "address": "愛知県あま市甚目寺二伴田76",
        "latitude": "35.19958052",
        "longitude": "136.8203722"
    },
    {
        "No.": "45",
        "共通ID": "E2323300001201",
        "name": "県立五条高校",
        "address": "愛知県あま市西今宿阿弥陀寺56",
        "latitude": "35.20371788",
        "longitude": "136.8244016"
    },
    {
        "No.": "46",
        "共通ID": "E2323700030201",
        "name": "甚目寺総合福祉会館",
        "address": "愛知県あま市西今宿馬洗46",
        "latitude": "35.20030186",
        "longitude": "136.826771"
    },
    {
        "No.": "47",
        "共通ID": "E2323700031201",
        "name": "甚目寺総合体育館",
        "address": "愛知県あま市西今宿馬洗56",
        "latitude": "35.19906428",
        "longitude": "136.8270183"
    },
    {
        "No.": "48",
        "共通ID": "E2323700032201",
        "name": "甚目寺老人福祉センター",
        "address": "愛知県あま市西今宿平割二25",
        "latitude": "35.20300914",
        "longitude": "136.8342514"
    },
    {
        "No.": "49",
        "共通ID": "E2323700033201",
        "name": "人権ふれあいセンター",
        "address": "愛知県あま市西今宿平割二32",
        "latitude": "35.20364461",
        "longitude": "136.8337318"
    },
    {
        "No.": "50",
        "共通ID": "E2323700034202",
        "name": "甚目寺東小学校",
        "address": "愛知県あま市西今宿六反割60-1",
        "latitude": "35.20268444",
        "longitude": "136.8247192"
    },
    {
        "No.": "51",
        "共通ID": "E2323700034201",
        "name": "甚目寺東小学校グラウンド",
        "address": "愛知県あま市西今宿六反割60-1",
        "latitude": "35.2024302",
        "longitude": "136.8247353"
    },
    {
        "No.": "52",
        "共通ID": "E2323700035201",
        "name": "甚目寺南小学校グラウンド",
        "address": "愛知県あま市中萱津西ノ川40",
        "latitude": "35.18800992",
        "longitude": "136.8308128"
    },
    {
        "No.": "53",
        "共通ID": "E2323700035202",
        "name": "甚目寺南小学校",
        "address": "愛知県あま市中萱津西ノ川40",
        "latitude": "35.18825813",
        "longitude": "136.8307902"
    },
    {
        "No.": "54",
        "共通ID": "E2323700036201",
        "name": "コミュニティプラザ萱津",
        "address": "愛知県あま市中萱津法慶寺24",
        "latitude": "35.18844603",
        "longitude": "136.8435278"
    },
    {
        "No.": "55",
        "共通ID": "E2323700037201",
        "name": "美和グラウンド",
        "address": "愛知県あま市東溝口3-101",
        "latitude": "35.20544363",
        "longitude": "136.7849405"
    },
    {
        "No.": "56",
        "共通ID": "E2323700038202",
        "name": "正則小学校",
        "address": "愛知県あま市二ツ寺三本松46",
        "latitude": "35.20643493",
        "longitude": "136.7987826"
    },
    {
        "No.": "57",
        "共通ID": "E2323700038201",
        "name": "正則小学校グラウンド",
        "address": "愛知県あま市二ツ寺三本松46",
        "latitude": "35.20619823",
        "longitude": "136.7989543"
    },
    {
        "No.": "58",
        "共通ID": "E2323700039201",
        "name": "二ツ寺親水公園",
        "address": "愛知県あま市二ツ寺西高須賀1",
        "latitude": "35.21051798",
        "longitude": "136.7924471"
    },
    {
        "No.": "59",
        "共通ID": "E2323700040201",
        "name": "蜂須賀グラウンド",
        "address": "愛知県あま市蜂須賀八幡前18",
        "latitude": "35.20633824",
        "longitude": "136.7712106"
    },
    {
        "No.": "60",
        "共通ID": "E2323700041201",
        "name": "甚目寺南児童館（本郷憩の家）",
        "address": "愛知県あま市本郷柿ノ木92",
        "latitude": "35.18602048",
        "longitude": "136.8283294"
    },
    {
        "No.": "61",
        "共通ID": "E2323700042201",
        "name": "甚目寺南中学校グラウンド",
        "address": "愛知県あま市本郷八尻6",
        "latitude": "35.18910001",
        "longitude": "136.8286041"
    },
    {
        "No.": "62",
        "共通ID": "E2323700042202",
        "name": "甚目寺南中学校",
        "address": "愛知県あま市本郷八尻6",
        "latitude": "35.18942881",
        "longitude": "136.8285666"
    },
    {
        "No.": "63",
        "共通ID": "E2323700043202",
        "name": "美和東小学校",
        "address": "愛知県あま市木折寺田1-3",
        "latitude": "35.19099083",
        "longitude": "136.7967294"
    },
    {
        "No.": "64",
        "共通ID": "E2323700043201",
        "name": "美和東小学校グラウンド",
        "address": "愛知県あま市木折寺田1-3",
        "latitude": "35.19068395",
        "longitude": "136.796724"
    },
    {
        "No.": "65",
        "共通ID": "E2323700044201",
        "name": "美和児童館",
        "address": "愛知県あま市木田五反田124-1",
        "latitude": "35.190413",
        "longitude": "136.7877566"
    },
    {
        "No.": "66",
        "共通ID": "E2323700045201",
        "name": "美和小学校グラウンド",
        "address": "愛知県あま市木田小島55",
        "latitude": "35.19755223",
        "longitude": "136.7821257"
    },
    {
        "No.": "67",
        "共通ID": "E2323700045202",
        "name": "美和小学校",
        "address": "愛知県あま市木田小島55",
        "latitude": "35.19778018",
        "longitude": "136.782292"
    },
    {
        "No.": "68",
        "共通ID": "E2323700046201",
        "name": "美和中学校グラウンド",
        "address": "愛知県あま市木田丁子ノ口1",
        "latitude": "35.19761347",
        "longitude": "136.7883667"
    },
    {
        "No.": "69",
        "共通ID": "E2323700046202",
        "name": "美和中学校",
        "address": "愛知県あま市木田丁子ノ口1",
        "latitude": "35.19789422",
        "longitude": "136.7884475"
    },
    {
        "No.": "70",
        "共通ID": "E2323700047201",
        "name": "美和情報ふれあいセンター",
        "address": "愛知県あま市木田丁子ノ口6-1",
        "latitude": "35.19794257",
        "longitude": "136.7869988"
    },
    {
        "No.": "71",
        "共通ID": "E2323600001201",
        "name": "名古屋刑務所",
        "address": "愛知県みよし市ひばりケ丘1-1",
        "latitude": "35.1181178",
        "longitude": "137.1172752"
    },
    {
        "No.": "72",
        "共通ID": "E2323600002201",
        "name": "おかよし交流センター",
        "address": "愛知県みよし市ひばりケ丘2-1-1",
        "latitude": "35.11813737",
        "longitude": "137.1143116"
    },
    {
        "No.": "73",
        "共通ID": "E2323600003201",
        "name": "ひばりヶ丘集会所（ひばりヶ丘ふれあいセンター）",
        "address": "愛知県みよし市ひばりケ丘2-6-12",
        "latitude": "35.116792",
        "longitude": "137.115188"
    },
    {
        "No.": "74",
        "共通ID": "E2323600004201",
        "name": "三好下老人憩いの家",
        "address": "愛知県みよし市園原2-1-1",
        "latitude": "35.08338999",
        "longitude": "137.0680593"
    },
    {
        "No.": "75",
        "共通ID": "E2323600005201",
        "name": "三好下公民館",
        "address": "愛知県みよし市園原2-1-2",
        "latitude": "35.0837435",
        "longitude": "137.0685287"
    },
    {
        "No.": "76",
        "共通ID": "E2323600007201",
        "name": "黒笹小学校",
        "address": "愛知県みよし市黒笹町丸根1241-5",
        "latitude": "35.12992285",
        "longitude": "137.0965384"
    },
    {
        "No.": "77",
        "共通ID": "E2323600009201",
        "name": "黒笹公民館",
        "address": "愛知県みよし市黒笹町縄手上522-1",
        "latitude": "35.12636766",
        "longitude": "137.0912644"
    },
    {
        "No.": "78",
        "共通ID": "E2323600010201",
        "name": "北部小学校",
        "address": "愛知県みよし市根浦町3-9-47",
        "latitude": "35.10936518",
        "longitude": "137.0963389"
    },
    {
        "No.": "79",
        "共通ID": "E2323600011201",
        "name": "三好丘中学校",
        "address": "愛知県みよし市三好丘2-14-10",
        "latitude": "35.12667718",
        "longitude": "137.1174721"
    },
    {
        "No.": "80",
        "共通ID": "E2323600012201",
        "name": "三好丘小学校",
        "address": "愛知県みよし市三好丘7-1",
        "latitude": "35.11988619",
        "longitude": "137.112151"
    },
    {
        "No.": "81",
        "共通ID": "E2323600013201",
        "name": "三好丘集会所",
        "address": "愛知県みよし市三好丘7-11-1",
        "latitude": "35.12000529",
        "longitude": "137.1145086"
    },
    {
        "No.": "82",
        "共通ID": "E2323600014201",
        "name": "三好丘旭集会所",
        "address": "愛知県みよし市三好丘旭2-14-2",
        "latitude": "35.12395502",
        "longitude": "137.1212761"
    },
    {
        "No.": "83",
        "共通ID": "E2323600015201",
        "name": "北中学校",
        "address": "愛知県みよし市三好丘桜1-1-1",
        "latitude": "35.11278023",
        "longitude": "137.1080451"
    },
    {
        "No.": "84",
        "共通ID": "E2323600016201",
        "name": "三好丘桜集会所",
        "address": "愛知県みよし市三好丘桜3-4-5",
        "latitude": "35.11376371",
        "longitude": "137.1108092"
    },
    {
        "No.": "85",
        "共通ID": "E2323600017201",
        "name": "みどり保育園",
        "address": "愛知県みよし市三好丘桜4-11-1",
        "latitude": "35.11453114",
        "longitude": "137.1168052"
    },
    {
        "No.": "86",
        "共通ID": "E2323600018201",
        "name": "緑丘小学校",
        "address": "愛知県みよし市三好丘緑1-1-1",
        "latitude": "35.11099295",
        "longitude": "137.1165954"
    },
    {
        "No.": "87",
        "共通ID": "E2323600019201",
        "name": "三好丘緑集会所",
        "address": "愛知県みよし市三好丘緑3-8-22",
        "latitude": "35.10960976",
        "longitude": "137.1149808"
    },
    {
        "No.": "88",
        "共通ID": "E2323600020201",
        "name": "高嶺公民館",
        "address": "愛知県みよし市三好丘緑4-11-5",
        "latitude": "35.10863091",
        "longitude": "137.11681"
    },
    {
        "No.": "89",
        "共通ID": "E2323600021201",
        "name": "なかよし保育園",
        "address": "愛知県みよし市三好町ニの沢8-2",
        "latitude": "35.080865",
        "longitude": "137.054003"
    },
    {
        "No.": "90",
        "共通ID": "E2323600022201",
        "name": "中部小学校",
        "address": "愛知県みよし市三好町宮ノ越31",
        "latitude": "35.08591132",
        "longitude": "137.0735278"
    },
    {
        "No.": "91",
        "共通ID": "E2323600023201",
        "name": "中部老人憩いの家",
        "address": "愛知県みよし市三好町宮ノ越31-1",
        "latitude": "35.08564209",
        "longitude": "137.0725876"
    },
    {
        "No.": "92",
        "共通ID": "E2323600024201",
        "name": "三好中学校",
        "address": "愛知県みよし市三好町宮ノ越42",
        "latitude": "35.08648399",
        "longitude": "137.0710984"
    },
    {
        "No.": "93",
        "共通ID": "E2323600025201",
        "name": "三好上児童館",
        "address": "愛知県みよし市三好町上103",
        "latitude": "35.08834055",
        "longitude": "137.0705249"
    },
    {
        "No.": "94",
        "共通ID": "E2323600026201",
        "name": "上ヶ池集会所（上ヶ池会館サンフレンド）",
        "address": "愛知県みよし市三好町上ケ池26-19",
        "latitude": "35.07998902",
        "longitude": "137.0823089"
    },
    {
        "No.": "95",
        "共通ID": "E2323600027201",
        "name": "福祉センター",
        "address": "愛知県みよし市三好町陣取山39-5",
        "latitude": "35.08762154",
        "longitude": "137.0750963"
    },
    {
        "No.": "96",
        "共通ID": "E2323600029201",
        "name": "カネヨシプレイス",
        "address": "愛知県みよし市三好町大慈山1-1",
        "latitude": "35.08166721",
        "longitude": "137.0804118"
    },
    {
        "No.": "97",
        "共通ID": "E2323600030201",
        "name": "三好上公民館",
        "address": "愛知県みよし市三好町大坪12",
        "latitude": "35.09159575",
        "longitude": "137.0714418"
    },
    {
        "No.": "98",
        "共通ID": "E2323600031201",
        "name": "わかば保育園",
        "address": "愛知県みよし市三好町大坪54",
        "latitude": "35.09243994",
        "longitude": "137.0720909"
    },
    {
        "No.": "99",
        "共通ID": "E2323600033201",
        "name": "三好公園総合体育館",
        "address": "愛知県みよし市三好町池の原1",
        "latitude": "35.0913363",
        "longitude": "137.0888178"
    },
    {
        "No.": "100",
        "共通ID": "E2323600034201",
        "name": "新屋老人憩いの家",
        "address": "愛知県みよし市三好町池ノ原1-21",
        "latitude": "35.09274",
        "longitude": "137.085679"
    },
    {
        "No.": "101",
        "共通ID": "E2323600034202",
        "name": "新屋児童館",
        "address": "愛知県みよし市三好町池ノ原1-21",
        "latitude": "35.09235711",
        "longitude": "137.0857311"
    },
    {
        "No.": "102",
        "共通ID": "E2323600035201",
        "name": "中島住宅集会所",
        "address": "愛知県みよし市三好町中島26",
        "latitude": "35.09125609",
        "longitude": "137.0749479"
    },
    {
        "No.": "103",
        "共通ID": "E2323600036201",
        "name": "天王小学校",
        "address": "愛知県みよし市三好町天王51",
        "latitude": "35.08994442",
        "longitude": "137.0857194"
    },
    {
        "No.": "104",
        "共通ID": "E2323600037201",
        "name": "天王保育園",
        "address": "愛知県みよし市三好町天王51-20",
        "latitude": "35.089993",
        "longitude": "137.084919"
    },
    {
        "No.": "105",
        "共通ID": "E2323600039201",
        "name": "県立三好高校",
        "address": "愛知県みよし市三好町東山110-1",
        "latitude": "35.08329536",
        "longitude": "137.0872147"
    },
    {
        "No.": "106",
        "共通ID": "E2323600040201",
        "name": "東山住宅集会所",
        "address": "愛知県みよし市三好町東山4-43",
        "latitude": "35.08901537",
        "longitude": "137.0801137"
    },
    {
        "No.": "107",
        "共通ID": "E2323600041201",
        "name": "東山老人憩いの家",
        "address": "愛知県みよし市三好町東山45-1",
        "latitude": "35.09189629",
        "longitude": "137.0999352"
    },
    {
        "No.": "108",
        "共通ID": "E2323600042201",
        "name": "すみれ保育園",
        "address": "愛知県みよし市三好町八和田108",
        "latitude": "35.08691",
        "longitude": "137.068781"
    },
    {
        "No.": "109",
        "共通ID": "E2323600043201",
        "name": "三好下児童館",
        "address": "愛知県みよし市三好町八和田50-2",
        "latitude": "35.08517309",
        "longitude": "137.0675622"
    },
    {
        "No.": "110",
        "共通ID": "E2323600044201",
        "name": "三吉小学校",
        "address": "愛知県みよし市三好町半野木1-27",
        "latitude": "35.08149509",
        "longitude": "137.0632001"
    },
    {
        "No.": "111",
        "共通ID": "E2323600045201",
        "name": "平池集会所（平池会館サンピース）",
        "address": "愛知県みよし市三好町平池7-49",
        "latitude": "35.09671776",
        "longitude": "137.0729376"
    },
    {
        "No.": "112",
        "共通ID": "E2323600046201",
        "name": "蜂ヶ池児童館",
        "address": "愛知県みよし市三好町蜂ケ池29-12",
        "latitude": "35.08449283",
        "longitude": "137.078998"
    },
    {
        "No.": "113",
        "共通ID": "E2323600047201",
        "name": "東山児童館",
        "address": "愛知県みよし市三好町弥栄31-3",
        "latitude": "35.08440024",
        "longitude": "137.0826455"
    },
    {
        "No.": "114",
        "共通ID": "E2323600048201",
        "name": "西一色老人憩いの家",
        "address": "愛知県みよし市西一色町〆林14",
        "latitude": "35.08687402",
        "longitude": "137.0588471"
    },
    {
        "No.": "115",
        "共通ID": "E2323600050201",
        "name": "西一色集会所（西一色ふれあい会館）",
        "address": "愛知県みよし市西一色町池の内17",
        "latitude": "35.08758391",
        "longitude": "137.0587423"
    },
    {
        "No.": "116",
        "共通ID": "E2323600049201",
        "name": "西一色児童館",
        "address": "愛知県みよし市西一色町池ノ内17",
        "latitude": "35.08711423",
        "longitude": "137.0586351"
    },
    {
        "No.": "117",
        "共通ID": "E2323600051201",
        "name": "子育て総合支援センター",
        "address": "愛知県みよし市西陣取山130",
        "latitude": "35.08746752",
        "longitude": "137.0764903"
    },
    {
        "No.": "118",
        "共通ID": "E2323600052201",
        "name": "南部地区コミュニティ広場",
        "address": "愛知県みよし市打越町九蔵釜1",
        "latitude": "35.07080028",
        "longitude": "137.0913317"
    },
    {
        "No.": "119",
        "共通ID": "E2323600054201",
        "name": "打越保育園",
        "address": "愛知県みよし市打越町畦違311",
        "latitude": "35.07885285",
        "longitude": "137.0932658"
    },
    {
        "No.": "120",
        "共通ID": "E2323600055201",
        "name": "南中学校",
        "address": "愛知県みよし市打越町三百目3",
        "latitude": "35.07659093",
        "longitude": "137.0896899"
    },
    {
        "No.": "121",
        "共通ID": "E2323600057201",
        "name": "山伏住宅集会所",
        "address": "愛知県みよし市打越町山伏33-1",
        "latitude": "35.07547561",
        "longitude": "137.0939652"
    },
    {
        "No.": "122",
        "共通ID": "E2323600058201",
        "name": "高嶺児童館",
        "address": "愛知県みよし市打越町新池浦63-1",
        "latitude": "35.09419774",
        "longitude": "137.1098913"
    },
    {
        "No.": "123",
        "共通ID": "E2323600060201",
        "name": "打越老人憩いの家",
        "address": "愛知県みよし市打越町前田18",
        "latitude": "35.07392984",
        "longitude": "137.0974113"
    },
    {
        "No.": "124",
        "共通ID": "E2323600061201",
        "name": "打越児童館",
        "address": "愛知県みよし市打越町前田27-1",
        "latitude": "35.07358354",
        "longitude": "137.0975422"
    },
    {
        "No.": "125",
        "共通ID": "E2323600062201",
        "name": "打越公民館",
        "address": "愛知県みよし市打越町前田30",
        "latitude": "35.07391461",
        "longitude": "137.0975835"
    },
    {
        "No.": "126",
        "共通ID": "E2323600063201",
        "name": "福谷住宅集会所",
        "address": "愛知県みよし市福谷町阿弥陀堂7",
        "latitude": "35.1139702",
        "longitude": "137.1065222"
    },
    {
        "No.": "127",
        "共通ID": "E2323600065201",
        "name": "三好丘あおばふれあいセンター",
        "address": "愛知県みよし市福谷町広久伝179-1",
        "latitude": "35.12889894",
        "longitude": "137.1071718"
    },
    {
        "No.": "128",
        "共通ID": "E2323600066201",
        "name": "城山保育園",
        "address": "愛知県みよし市福谷町市場62",
        "latitude": "35.11368733",
        "longitude": "137.1002151"
    },
    {
        "No.": "129",
        "共通ID": "E2323600067201",
        "name": "福谷区民会館",
        "address": "愛知県みよし市福谷町寺ノ前22",
        "latitude": "35.11369525",
        "longitude": "137.1035676"
    },
    {
        "No.": "130",
        "共通ID": "E2323600068201",
        "name": "黒笹保育園",
        "address": "愛知県みよし市福谷町西大山1-31",
        "latitude": "35.126459",
        "longitude": "137.098056"
    },
    {
        "No.": "131",
        "共通ID": "E2323600069201",
        "name": "福谷老人憩いの家",
        "address": "愛知県みよし市福谷町蔵屋敷1",
        "latitude": "35.1144049",
        "longitude": "137.1019438"
    },
    {
        "No.": "132",
        "共通ID": "E2323600070201",
        "name": "福谷児童館",
        "address": "愛知県みよし市福谷町仲田21-3",
        "latitude": "35.11431524",
        "longitude": "137.105525"
    },
    {
        "No.": "133",
        "共通ID": "E2323600072201",
        "name": "福田児童館",
        "address": "愛知県みよし市福田町東屋敷84",
        "latitude": "35.07202266",
        "longitude": "137.0508648"
    },
    {
        "No.": "134",
        "共通ID": "E2323600073201",
        "name": "福田老人憩いの家",
        "address": "愛知県みよし市福田町東屋敷91-1",
        "latitude": "35.07228608",
        "longitude": "137.0510365"
    },
    {
        "No.": "135",
        "共通ID": "E2323600074201",
        "name": "明知下老人憩いの家",
        "address": "愛知県みよし市明知町下屋敷16-3",
        "latitude": "35.06070846",
        "longitude": "137.0795414"
    },
    {
        "No.": "136",
        "共通ID": "E2323600075201",
        "name": "明知下児童館",
        "address": "愛知県みよし市明知町下屋敷17",
        "latitude": "35.06074359",
        "longitude": "137.0791928"
    },
    {
        "No.": "137",
        "共通ID": "E2323600076201",
        "name": "明知下公民館",
        "address": "愛知県みよし市明知町下屋敷6-1",
        "latitude": "35.06105974",
        "longitude": "137.0784686"
    },
    {
        "No.": "138",
        "共通ID": "E2323600077201",
        "name": "明知保育園",
        "address": "愛知県みよし市明知町細口浦1-4",
        "latitude": "35.064695",
        "longitude": "137.084219"
    },
    {
        "No.": "139",
        "共通ID": "E2323600078201",
        "name": "南部小学校",
        "address": "愛知県みよし市明知町上細口27",
        "latitude": "35.07017975",
        "longitude": "137.0891486"
    },
    {
        "No.": "140",
        "共通ID": "E2323600079201",
        "name": "明知上児童館",
        "address": "愛知県みよし市明知町東谷10",
        "latitude": "35.07096058",
        "longitude": "137.0817149"
    },
    {
        "No.": "141",
        "共通ID": "E2323600080201",
        "name": "明知上老人憩いの家",
        "address": "愛知県みよし市明知町東谷30",
        "latitude": "35.07122931",
        "longitude": "137.0828121"
    },
    {
        "No.": "142",
        "共通ID": "E2323600081201",
        "name": "明知上公民館",
        "address": "愛知県みよし市明知町東谷61",
        "latitude": "35.07131181",
        "longitude": "137.0815272"
    },
    {
        "No.": "143",
        "共通ID": "E2323600082201",
        "name": "東山集会所（サンヴィッツ宝栄）",
        "address": "愛知県みよし市明知町宝栄108-4",
        "latitude": "35.080375",
        "longitude": "137.088111"
    },
    {
        "No.": "144",
        "共通ID": "E2323600083202",
        "name": "莇生公民館",
        "address": "愛知県みよし市莇生町小金下2-1",
        "latitude": "35.10199355",
        "longitude": "137.1005446"
    },
    {
        "No.": "145",
        "共通ID": "E2323600083201",
        "name": "莇生児童館",
        "address": "愛知県みよし市莇生町小金下2-1",
        "latitude": "35.10137912",
        "longitude": "137.0998634"
    },
    {
        "No.": "146",
        "共通ID": "E2323600084201",
        "name": "莇生老人憩いの家",
        "address": "愛知県みよし市莇生町小金下3-1",
        "latitude": "35.10189508",
        "longitude": "137.1003767"
    },
    {
        "No.": "147",
        "共通ID": "E2323600085201",
        "name": "莇生保育園",
        "address": "愛知県みよし市莇生町仲田48-1",
        "latitude": "35.10181431",
        "longitude": "137.0982541"
    },
    {
        "No.": "148",
        "共通ID": "E2344100009201",
        "name": "いたちだ公園",
        "address": "愛知県阿久比町宮津1-44",
        "latitude": "34.92947211",
        "longitude": "136.9267784"
    },
    {
        "No.": "149",
        "共通ID": "E2344100010201",
        "name": "さるこ公園",
        "address": "愛知県阿久比町宮津4-90",
        "latitude": "34.93298212",
        "longitude": "136.9255879"
    },
    {
        "No.": "150",
        "共通ID": "E2344100020201",
        "name": "阿久比駅前公園",
        "address": "愛知県阿久比町大字阿久比字駅前1-25",
        "latitude": "34.93043412",
        "longitude": "136.9183734"
    },
    {
        "No.": "151",
        "共通ID": "E2344100021201",
        "name": "南風公園",
        "address": "愛知県阿久比町大字卯坂字猿田55-13",
        "latitude": "34.93814905",
        "longitude": "136.9244815"
    },
    {
        "No.": "152",
        "共通ID": "E2344100022201",
        "name": "坂部駅西公園",
        "address": "愛知県阿久比町大字卯坂字坂部46",
        "latitude": "34.94124691",
        "longitude": "136.9164519"
    },
    {
        "No.": "153",
        "共通ID": "E2344100023201",
        "name": "卯之山公園",
        "address": "愛知県阿久比町大字卯坂字秋葉山15",
        "latitude": "34.93652203",
        "longitude": "136.9111807"
    },
    {
        "No.": "154",
        "共通ID": "E2344100024201",
        "name": "焼山公園",
        "address": "愛知県阿久比町大字卯坂字焼山47-82",
        "latitude": "34.94501821",
        "longitude": "136.9125463"
    },
    {
        "No.": "155",
        "共通ID": "E2344100025201",
        "name": "阿久比スポーツ村",
        "address": "愛知県阿久比町大字卯坂字浅間裏3-2",
        "latitude": "34.94104186",
        "longitude": "136.9079191"
    },
    {
        "No.": "156",
        "共通ID": "E2344100026201",
        "name": "芝生広場",
        "address": "愛知県阿久比町大字卯坂字殿越50",
        "latitude": "34.93261818",
        "longitude": "136.9154875"
    },
    {
        "No.": "157",
        "共通ID": "E2344100027201",
        "name": "富士塚公園",
        "address": "愛知県阿久比町大字卯坂字富士塚96",
        "latitude": "34.93428606",
        "longitude": "136.9231508"
    },
    {
        "No.": "158",
        "共通ID": "E2344100028201",
        "name": "英比小学校グランド",
        "address": "愛知県阿久比町大字卯坂字北大平7",
        "latitude": "34.94302808",
        "longitude": "136.9191153"
    },
    {
        "No.": "159",
        "共通ID": "E2344100029201",
        "name": "宮津公園",
        "address": "愛知県阿久比町大字宮津字宮上ノ山18-3",
        "latitude": "34.92766271",
        "longitude": "136.9291857"
    },
    {
        "No.": "160",
        "共通ID": "E2344100030201",
        "name": "東部小学校グランド",
        "address": "愛知県阿久比町大字宮津字宮平柴15",
        "latitude": "34.92353305",
        "longitude": "136.92759"
    },
    {
        "No.": "161",
        "共通ID": "E2344100031201",
        "name": "山田中央公園",
        "address": "愛知県阿久比町大字宮津字山田1-27",
        "latitude": "34.93494128",
        "longitude": "136.9293543"
    },
    {
        "No.": "162",
        "共通ID": "E2344100032201",
        "name": "山田東公園",
        "address": "愛知県阿久比町大字宮津字山田81-2",
        "latitude": "34.93549846",
        "longitude": "136.9317599"
    },
    {
        "No.": "163",
        "共通ID": "E2344100033201",
        "name": "植公園",
        "address": "愛知県阿久比町大字植大字森後1",
        "latitude": "34.91458283",
        "longitude": "136.9141587"
    },
    {
        "No.": "164",
        "共通ID": "E2344100034201",
        "name": "南部小学校グランド",
        "address": "愛知県阿久比町大字植北後24",
        "latitude": "34.91830038",
        "longitude": "136.9180587"
    },
    {
        "No.": "165",
        "共通ID": "E2344100035201",
        "name": "福池公園",
        "address": "愛知県阿久比町大字草木字栄57",
        "latitude": "34.94762941",
        "longitude": "136.8971191"
    },
    {
        "No.": "166",
        "共通ID": "E2344100036201",
        "name": "中島公園",
        "address": "愛知県阿久比町大字草木字中郷76",
        "latitude": "34.94959928",
        "longitude": "136.8943082"
    },
    {
        "No.": "167",
        "共通ID": "E2344100037201",
        "name": "草木小学校グランド",
        "address": "愛知県阿久比町大字草木字中郷77",
        "latitude": "34.94870641",
        "longitude": "136.8946657"
    },
    {
        "No.": "168",
        "共通ID": "E2344100038201",
        "name": "東原公園",
        "address": "愛知県阿久比町大字草木字峰東64",
        "latitude": "34.94629714",
        "longitude": "136.9037005"
    },
    {
        "No.": "169",
        "共通ID": "E2344100039201",
        "name": "柏原公園",
        "address": "愛知県阿久比町大字草木字末広21",
        "latitude": "34.94618579",
        "longitude": "136.9006091"
    },
    {
        "No.": "170",
        "共通ID": "E2344100040201",
        "name": "草木グランド",
        "address": "愛知県阿久比町大字草木字蓮池130",
        "latitude": "34.95521346",
        "longitude": "136.898497"
    },
    {
        "No.": "171",
        "共通ID": "E2344100041201",
        "name": "白沢グランド",
        "address": "愛知県阿久比町大字白沢字大池1-3",
        "latitude": "34.95524274",
        "longitude": "136.9197691"
    },
    {
        "No.": "172",
        "共通ID": "E2344100042201",
        "name": "白沢台中央公園",
        "address": "愛知県阿久比町大字白沢字表山5-36",
        "latitude": "34.95079975",
        "longitude": "136.9200648"
    },
    {
        "No.": "173",
        "共通ID": "E2344100043201",
        "name": "福住園高台東公園",
        "address": "愛知県阿久比町大字板山字西ノ海道山22-52",
        "latitude": "34.94323723",
        "longitude": "136.926386"
    },
    {
        "No.": "174",
        "共通ID": "E2344100044201",
        "name": "板山グランド",
        "address": "愛知県阿久比町大字板山字川向108-1",
        "latitude": "34.9482959",
        "longitude": "136.9310693"
    },
    {
        "No.": "175",
        "共通ID": "E2344100045201",
        "name": "高根台西公園",
        "address": "愛知県阿久比町大字福住字高根台145-1",
        "latitude": "34.95417925",
        "longitude": "136.9245639"
    },
    {
        "No.": "176",
        "共通ID": "E2344100046201",
        "name": "高根台中央公園",
        "address": "愛知県阿久比町大字福住字高根台68",
        "latitude": "34.9558368",
        "longitude": "136.9241079"
    },
    {
        "No.": "177",
        "共通ID": "E2344100047201",
        "name": "丸山公園",
        "address": "愛知県阿久比町大字椋岡字丸山1-1",
        "latitude": "34.9260702",
        "longitude": "136.9171219"
    },
    {
        "No.": "178",
        "共通ID": "E2344100048201",
        "name": "矢口公園",
        "address": "愛知県阿久比町大字矢高字仲組53-1",
        "latitude": "34.92597059",
        "longitude": "136.9131921"
    },
    {
        "No.": "179",
        "共通ID": "E2344100057201",
        "name": "陽なたの丘中央公園",
        "address": "愛知県阿久比町陽なたの丘2-9",
        "latitude": "34.93686416",
        "longitude": "136.9320706"
    },
    {
        "No.": "180",
        "共通ID": "E2344100058201",
        "name": "陽なたの丘南公園",
        "address": "愛知県阿久比町陽なたの丘3-4",
        "latitude": "34.93607917",
        "longitude": "136.9289909"
    },
    {
        "No.": "181",
        "共通ID": "E2344100059201",
        "name": "陽なたの丘東公園",
        "address": "愛知県阿久比町陽なたの丘7-10",
        "latitude": "34.93642487",
        "longitude": "136.9367116"
    },
    {
        "No.": "182",
        "共通ID": "E2323200001201",
        "name": "文化会館（２階以上）",
        "address": "愛知県愛西市稲葉町米野303",
        "latitude": "35.15228108",
        "longitude": "136.7285534"
    },
    {
        "No.": "183",
        "共通ID": "E2323200002201",
        "name": "永和地区防災コミュニティセンター（２階以上）",
        "address": "愛知県愛西市鰯江町郷裏147",
        "latitude": "35.12846974",
        "longitude": "136.7624009"
    },
    {
        "No.": "184",
        "共通ID": "E2323200003203",
        "name": "開治小学校（校舎）",
        "address": "愛知県愛西市鵜多須町中道248",
        "latitude": "35.22258134",
        "longitude": "136.7079692"
    },
    {
        "No.": "185",
        "共通ID": "E2323200003202",
        "name": "開治小学校（体育館）",
        "address": "愛知県愛西市鵜多須町中道248",
        "latitude": "35.22291439",
        "longitude": "136.7079665"
    },
    {
        "No.": "186",
        "共通ID": "E2323200003201",
        "name": "開治小学校（運動場）",
        "address": "愛知県愛西市鵜多須町中道248",
        "latitude": "35.221995",
        "longitude": "136.708111"
    },
    {
        "No.": "187",
        "共通ID": "E2323200004201",
        "name": "木曽川高畑地区河川防災ステーション（屋外）",
        "address": "愛知県愛西市給父町北部13",
        "latitude": "35.227431",
        "longitude": "136.685253"
    },
    {
        "No.": "188",
        "共通ID": "E2323200005201",
        "name": "佐屋総合運動場",
        "address": "愛知県愛西市金棒町東20-1",
        "latitude": "35.15263358",
        "longitude": "136.7485382"
    },
    {
        "No.": "189",
        "共通ID": "E2323200006201",
        "name": "八開総合福祉センター（洪水は２階以上）",
        "address": "愛知県愛西市江西町宮西38",
        "latitude": "35.21930105",
        "longitude": "136.6928881"
    },
    {
        "No.": "190",
        "共通ID": "E2323200007203",
        "name": "八開中学校（校舎）",
        "address": "愛知県愛西市江西町川原11",
        "latitude": "35.21996866",
        "longitude": "136.6993774"
    },
    {
        "No.": "191",
        "共通ID": "E2323200007201",
        "name": "八開中学校（運動場）",
        "address": "愛知県愛西市江西町川原11",
        "latitude": "35.218739",
        "longitude": "136.699287"
    },
    {
        "No.": "192",
        "共通ID": "E2323200007202",
        "name": "八開中学校（体育館、卓球室）",
        "address": "愛知県愛西市江西町川原11",
        "latitude": "35.219966",
        "longitude": "136.700349"
    },
    {
        "No.": "193",
        "共通ID": "E2323200008201",
        "name": "あいち海部農業協同組合八開支店（２階）",
        "address": "愛知県愛西市江西町川原8",
        "latitude": "35.220874",
        "longitude": "136.699334"
    },
    {
        "No.": "194",
        "共通ID": "E2323200009201",
        "name": "八開地区コミュニティセンター",
        "address": "愛知県愛西市江西町大縄場155-1",
        "latitude": "35.219159",
        "longitude": "136.6971673"
    },
    {
        "No.": "195",
        "共通ID": "E2323200010201",
        "name": "立田南部小学校（運動場）",
        "address": "愛知県愛西市山路町小割7",
        "latitude": "35.152054",
        "longitude": "136.696594"
    },
    {
        "No.": "196",
        "共通ID": "E2323200010202",
        "name": "立田南部小学校（校舎）（２階以上）",
        "address": "愛知県愛西市山路町小割7",
        "latitude": "35.15244381",
        "longitude": "136.6963822"
    },
    {
        "No.": "197",
        "共通ID": "E2323200011201",
        "name": "愛西ガーデン（津波は２階以上）",
        "address": "愛知県愛西市山路町野方149-130",
        "latitude": "35.15368524",
        "longitude": "136.7081683"
    },
    {
        "No.": "198",
        "共通ID": "E2323200012201",
        "name": "藤浪地域防災コミュニティセンター（洪水は２階以上）",
        "address": "愛知県愛西市持中町郷前29",
        "latitude": "35.18528398",
        "longitude": "136.7412474"
    },
    {
        "No.": "199",
        "共通ID": "E2323200013203",
        "name": "学校法人平山学園清林館高校（校舎）",
        "address": "愛知県愛西市持中町八町88",
        "latitude": "35.182815",
        "longitude": "136.739805"
    },
    {
        "No.": "200",
        "共通ID": "E2323200013202",
        "name": "学校法人平山学園清林館高校（体育館）",
        "address": "愛知県愛西市持中町八町88",
        "latitude": "35.183129",
        "longitude": "136.740241"
    },
    {
        "No.": "201",
        "共通ID": "E2323200013201",
        "name": "学校法人平山学園清林館高校（運動場）",
        "address": "愛知県愛西市持中町八町88",
        "latitude": "35.182252",
        "longitude": "136.739744"
    },
    {
        "No.": "202",
        "共通ID": "E2323200014201",
        "name": "勝幡地域防災コミュニティセンター（洪水は２階以上）",
        "address": "愛知県愛西市勝幡町駅東26-1",
        "latitude": "35.19850516",
        "longitude": "136.7532208"
    },
    {
        "No.": "203",
        "共通ID": "E2323200015201",
        "name": "勝幡小学校（運動場）",
        "address": "愛知県愛西市勝幡町五俵入2227",
        "latitude": "35.196004",
        "longitude": "136.750324"
    },
    {
        "No.": "204",
        "共通ID": "E2323200015203",
        "name": "勝幡小学校（校舎）（洪水は２階以上）",
        "address": "愛知県愛西市勝幡町五俵入2227",
        "latitude": "35.19638088",
        "longitude": "136.7502142"
    },
    {
        "No.": "205",
        "共通ID": "E2323200015202",
        "name": "勝幡小学校（体育館）",
        "address": "愛知県愛西市勝幡町五俵入2227",
        "latitude": "35.19644664",
        "longitude": "136.7510564"
    },
    {
        "No.": "206",
        "共通ID": "E2323200016201",
        "name": "佐織総合福祉センター（洪水は２階以上）",
        "address": "愛知県愛西市小津町観音堂27",
        "latitude": "35.19284585",
        "longitude": "136.7431743"
    },
    {
        "No.": "207",
        "共通ID": "E2323200017201",
        "name": "立田体育館（２階以上）",
        "address": "愛知県愛西市小茂井町松下5",
        "latitude": "35.16919547",
        "longitude": "136.6934819"
    },
    {
        "No.": "208",
        "共通ID": "E2323200019201",
        "name": "立田北部小学校（運動場）",
        "address": "愛知県愛西市新右エ門新田町郷前83",
        "latitude": "35.181361",
        "longitude": "136.696052"
    },
    {
        "No.": "209",
        "共通ID": "E2323200019202",
        "name": "立田北部小学校（校舎）（２階以上）",
        "address": "愛知県愛西市新右エ門新田町郷前83",
        "latitude": "35.18165844",
        "longitude": "136.695473"
    },
    {
        "No.": "210",
        "共通ID": "E2323200020201",
        "name": "立田南部地区防災コミュニティセンター（津波は２階以上）",
        "address": "愛知県愛西市森川町村仲46-1",
        "latitude": "35.14443834",
        "longitude": "136.6993923"
    },
    {
        "No.": "211",
        "共通ID": "E2323200021201",
        "name": "佐織公民館（洪水は２階以上）",
        "address": "愛知県愛西市諏訪町郷西456-1",
        "latitude": "35.19256984",
        "longitude": "136.7385661"
    },
    {
        "No.": "212",
        "共通ID": "E2323200022201",
        "name": "あいち海部農業協同組合佐織支店（２階）",
        "address": "愛知県愛西市諏訪町郷西495-1",
        "latitude": "35.193031",
        "longitude": "136.737665"
    },
    {
        "No.": "213",
        "共通ID": "E2323200023201",
        "name": "佐織中学校（運動場）",
        "address": "愛知県愛西市諏訪町郷東167",
        "latitude": "35.191436",
        "longitude": "136.741194"
    },
    {
        "No.": "214",
        "共通ID": "E2323200023202",
        "name": "佐織中学校（体育館）",
        "address": "愛知県愛西市諏訪町郷東167",
        "latitude": "35.19239559",
        "longitude": "136.743101"
    },
    {
        "No.": "215",
        "共通ID": "E2323200023203",
        "name": "佐織中学校（校舎）（洪水は２階以上）",
        "address": "愛知県愛西市諏訪町郷東167",
        "latitude": "35.19197035",
        "longitude": "136.7419798"
    },
    {
        "No.": "216",
        "共通ID": "E2323200024201",
        "name": "佐織体育館（洪水は２階以上）",
        "address": "愛知県愛西市諏訪町郷東75",
        "latitude": "35.19263597",
        "longitude": "136.7423822"
    },
    {
        "No.": "217",
        "共通ID": "E2323200025201",
        "name": "ヨシヅヤ佐屋店（屋上駐車場）",
        "address": "愛知県愛西市須依町前田面95-1",
        "latitude": "35.15094931",
        "longitude": "136.7179289"
    },
    {
        "No.": "218",
        "共通ID": "E2323200026201",
        "name": "佐屋小学校（運動場）",
        "address": "愛知県愛西市須依町東田面17",
        "latitude": "35.15408",
        "longitude": "136.727214"
    },
    {
        "No.": "219",
        "共通ID": "E2323200026202",
        "name": "佐屋小学校（校舎）（２階以上）",
        "address": "愛知県愛西市須依町東田面17",
        "latitude": "35.15480417",
        "longitude": "136.7271555"
    },
    {
        "No.": "220",
        "共通ID": "E2323200027201",
        "name": "佐屋中学校（運動場）",
        "address": "愛知県愛西市須依町東田面2",
        "latitude": "35.154006",
        "longitude": "136.725841"
    },
    {
        "No.": "221",
        "共通ID": "E2323200027202",
        "name": "佐屋中学校（武道場）（２階以上）",
        "address": "愛知県愛西市須依町東田面2",
        "latitude": "35.154563",
        "longitude": "136.726586"
    },
    {
        "No.": "222",
        "共通ID": "E2323200027203",
        "name": "佐屋中学校（校舎）（２階以上）",
        "address": "愛知県愛西市須依町東田面2",
        "latitude": "35.15443519",
        "longitude": "136.7259354"
    },
    {
        "No.": "223",
        "共通ID": "E2323200028201",
        "name": "中央図書館（２階以上）",
        "address": "愛知県愛西市須依町東田面6",
        "latitude": "35.15322494",
        "longitude": "136.7263158"
    },
    {
        "No.": "224",
        "共通ID": "E2323200029201",
        "name": "株式会社名古屋光商事",
        "address": "愛知県愛西市雀ケ森町開田27",
        "latitude": "35.16344245",
        "longitude": "136.7113135"
    },
    {
        "No.": "225",
        "共通ID": "E2323200030201",
        "name": "西川端小学校（運動場）",
        "address": "愛知県愛西市西川端町寺東15",
        "latitude": "35.214243",
        "longitude": "136.719913"
    },
    {
        "No.": "226",
        "共通ID": "E2323200030203",
        "name": "西川端小学校（校舎）（洪水は２階以上）",
        "address": "愛知県愛西市西川端町寺東15",
        "latitude": "35.21473525",
        "longitude": "136.7198993"
    },
    {
        "No.": "227",
        "共通ID": "E2323200030202",
        "name": "西川端小学校（体育館）",
        "address": "愛知県愛西市西川端町寺東15",
        "latitude": "35.21436271",
        "longitude": "136.7191912"
    },
    {
        "No.": "228",
        "共通ID": "E2323200032201",
        "name": "鴻池運輸株式会社愛西配送センター（事務所２階休息室等）",
        "address": "愛知県愛西市西保町寄之内6-1",
        "latitude": "35.137089",
        "longitude": "136.715135"
    },
    {
        "No.": "229",
        "共通ID": "E2323200033201",
        "name": "メドライン・ロジスティクス・ジャパン合同会社愛西物流センター（２階）",
        "address": "愛知県愛西市西保町鳥居先34-1",
        "latitude": "35.138626",
        "longitude": "136.714216"
    },
    {
        "No.": "230",
        "共通ID": "E2323200034201",
        "name": "西保地区防災コミュニティセンター",
        "address": "愛知県愛西市西保町北川原23-13",
        "latitude": "35.13914352",
        "longitude": "136.7074921"
    },
    {
        "No.": "231",
        "共通ID": "E2323200035201",
        "name": "あいち海部農業協同組合立田支店（２階）",
        "address": "愛知県愛西市石田町宮前2-1",
        "latitude": "35.169836",
        "longitude": "136.694657"
    },
    {
        "No.": "232",
        "共通ID": "E2323200036201",
        "name": "立田社会福祉会館（２階以上）",
        "address": "愛知県愛西市石田町宮前6-1",
        "latitude": "35.169799",
        "longitude": "136.694214"
    },
    {
        "No.": "233",
        "共通ID": "E2323200037202",
        "name": "立田中学校（体育館、武道場）（２階以上）",
        "address": "愛知県愛西市石田町宮東1",
        "latitude": "35.172706",
        "longitude": "136.693885"
    },
    {
        "No.": "234",
        "共通ID": "E2323200037201",
        "name": "立田中学校（運動場）",
        "address": "愛知県愛西市石田町宮東1",
        "latitude": "35.171565",
        "longitude": "136.694432"
    },
    {
        "No.": "235",
        "共通ID": "E2323200037203",
        "name": "立田中学校（校舎）（２階以上）",
        "address": "愛知県愛西市石田町宮東1",
        "latitude": "35.17233402",
        "longitude": "136.694445"
    },
    {
        "No.": "236",
        "共通ID": "E2323200038201",
        "name": "布目電機株式会社佐織第３工場（屋上）",
        "address": "愛知県愛西市千引町郷浦104",
        "latitude": "35.19061597",
        "longitude": "136.7581282"
    },
    {
        "No.": "237",
        "共通ID": "E2323200039201",
        "name": "株式会社テクノ豊栄（３階）",
        "address": "愛知県愛西市千引町郷前73",
        "latitude": "35.188511",
        "longitude": "136.756807"
    },
    {
        "No.": "238",
        "共通ID": "E2323200040201",
        "name": "永和中学校（運動場）",
        "address": "愛知県愛西市善太新田町七草平111-1",
        "latitude": "35.132099",
        "longitude": "136.75733"
    },
    {
        "No.": "239",
        "共通ID": "E2323200040202",
        "name": "永和中学校（校舎）（２階以上）",
        "address": "愛知県愛西市善太新田町七草平111-1",
        "latitude": "35.13281996",
        "longitude": "136.7579449"
    },
    {
        "No.": "240",
        "共通ID": "E2323200041201",
        "name": "ひまわり会館（２階以上）",
        "address": "愛知県愛西市善太新田町十割下1-4",
        "latitude": "35.1198685",
        "longitude": "136.7581067"
    },
    {
        "No.": "241",
        "共通ID": "E2323200042201",
        "name": "立田総合運動場（屋外）",
        "address": "愛知県愛西市早尾町草場68",
        "latitude": "35.1927512",
        "longitude": "136.693667"
    },
    {
        "No.": "242",
        "共通ID": "E2323200043201",
        "name": "立田北部地区防災コミュニティセンター",
        "address": "愛知県愛西市早尾町野薮11-1",
        "latitude": "35.188986",
        "longitude": "136.7001212"
    },
    {
        "No.": "243",
        "共通ID": "E2323200044202",
        "name": "佐織西中学校（体育館）",
        "address": "愛知県愛西市草平町阿原86",
        "latitude": "35.20583543",
        "longitude": "136.719898"
    },
    {
        "No.": "244",
        "共通ID": "E2323200044201",
        "name": "佐織西中学校（運動場）",
        "address": "愛知県愛西市草平町阿原86",
        "latitude": "35.205363",
        "longitude": "136.718931"
    },
    {
        "No.": "245",
        "共通ID": "E2323200044203",
        "name": "佐織西中学校（校舎）（洪水は２階以上）",
        "address": "愛知県愛西市草平町阿原86",
        "latitude": "35.20600199",
        "longitude": "136.7189593"
    },
    {
        "No.": "246",
        "共通ID": "E2323200045201",
        "name": "草平地域防災コミュニティセンター",
        "address": "愛知県愛西市草平町草場77",
        "latitude": "35.19805414",
        "longitude": "136.7171966"
    },
    {
        "No.": "247",
        "共通ID": "E2323200046201",
        "name": "草平小学校（運動場）",
        "address": "愛知県愛西市草平町北田名57",
        "latitude": "35.199945",
        "longitude": "136.717708"
    },
    {
        "No.": "248",
        "共通ID": "E2323200046202",
        "name": "草平小学校（体育館）",
        "address": "愛知県愛西市草平町北田名57",
        "latitude": "35.20024005",
        "longitude": "136.717157"
    },
    {
        "No.": "249",
        "共通ID": "E2323200046203",
        "name": "草平小学校（校舎）（洪水は２階以上）",
        "address": "愛知県愛西市草平町北田名57",
        "latitude": "35.19966143",
        "longitude": "136.7173876"
    },
    {
        "No.": "250",
        "共通ID": "E2323200047201",
        "name": "佐屋老人福祉センター（２階以上）",
        "address": "愛知県愛西市大井町浦田面297",
        "latitude": "35.14545028",
        "longitude": "136.7497821"
    },
    {
        "No.": "251",
        "共通ID": "E2323200048201",
        "name": "あいち海部農業協同組合永和支店（２階）",
        "address": "愛知県愛西市大井町七川北72-1",
        "latitude": "35.136549",
        "longitude": "136.754017"
    },
    {
        "No.": "252",
        "共通ID": "E2323200049201",
        "name": "永和地区公民館（２階以上）",
        "address": "愛知県愛西市大井町前田面215",
        "latitude": "35.13744831",
        "longitude": "136.75516"
    },
    {
        "No.": "253",
        "共通ID": "E2323200050201",
        "name": "永和小学校（運動場）",
        "address": "愛知県愛西市大井町弥八115",
        "latitude": "35.132376",
        "longitude": "136.75976"
    },
    {
        "No.": "254",
        "共通ID": "E2323200050202",
        "name": "永和小学校（校舎）（２階以上）",
        "address": "愛知県愛西市大井町弥八115",
        "latitude": "35.13340169",
        "longitude": "136.7598973"
    },
    {
        "No.": "255",
        "共通ID": "E2323200051201",
        "name": "永和保育園（２階以上）",
        "address": "愛知県愛西市大野町未28",
        "latitude": "35.12771167",
        "longitude": "136.7635618"
    },
    {
        "No.": "256",
        "共通ID": "E2323200052201",
        "name": "株式会社フジテックス（作業所２階、３階）",
        "address": "愛知県愛西市大野町未39",
        "latitude": "35.128833",
        "longitude": "136.764021"
    },
    {
        "No.": "257",
        "共通ID": "E2323200053201",
        "name": "佐織総合運動場（屋外）",
        "address": "愛知県愛西市鷹場町孫田1-1",
        "latitude": "35.203478",
        "longitude": "136.707802"
    },
    {
        "No.": "258",
        "共通ID": "E2323200054201",
        "name": "町方地域防災コミュニティセンター",
        "address": "愛知県愛西市町方町南堤外72-3",
        "latitude": "35.19159457",
        "longitude": "136.7305243"
    },
    {
        "No.": "259",
        "共通ID": "E2323200055201",
        "name": "日本通運株式会社愛西ロジスティクス事業所（事務棟４階会議室）",
        "address": "愛知県愛西市東保町昭和20",
        "latitude": "35.137528",
        "longitude": "136.717919"
    },
    {
        "No.": "260",
        "共通ID": "E2323200056201",
        "name": "佐屋高校（運動場）",
        "address": "愛知県愛西市東條町高田39",
        "latitude": "35.136776",
        "longitude": "136.73157"
    },
    {
        "No.": "261",
        "共通ID": "E2323200056202",
        "name": "佐屋高校（校舎）（２階以上）",
        "address": "愛知県愛西市東條町高田39",
        "latitude": "35.137228",
        "longitude": "136.731623"
    },
    {
        "No.": "262",
        "共通ID": "E2323200057201",
        "name": "市江地区コミュニティセンター（２階以上）",
        "address": "愛知県愛西市東條町西田面11-1",
        "latitude": "35.13959714",
        "longitude": "136.7277216"
    },
    {
        "No.": "263",
        "共通ID": "E2323200058202",
        "name": "市江小学校（校舎）（２階以上）",
        "address": "愛知県愛西市東條町西田面77",
        "latitude": "35.13715119",
        "longitude": "136.7260619"
    },
    {
        "No.": "264",
        "共通ID": "E2323200058201",
        "name": "市江小学校（運動場）",
        "address": "愛知県愛西市東條町西田面77",
        "latitude": "35.136649",
        "longitude": "136.726152"
    },
    {
        "No.": "265",
        "共通ID": "E2323200059203",
        "name": "佐屋西小学校（校舎）（津波は２階以上）",
        "address": "愛知県愛西市内佐屋町河原136",
        "latitude": "35.15560868",
        "longitude": "136.7164215"
    },
    {
        "No.": "266",
        "共通ID": "E2323200059201",
        "name": "佐屋西小学校（運動場）",
        "address": "愛知県愛西市内佐屋町河原136",
        "latitude": "35.15519",
        "longitude": "136.716174"
    },
    {
        "No.": "267",
        "共通ID": "E2323200060201",
        "name": "旧佐屋北保育園（２階以上）",
        "address": "愛知県愛西市日置町上川田131",
        "latitude": "35.16123987",
        "longitude": "136.7295675"
    },
    {
        "No.": "268",
        "共通ID": "E2323200061201",
        "name": "佐屋中央保育園（２階以上）",
        "address": "愛知県愛西市北一色町昭和113",
        "latitude": "35.1505327",
        "longitude": "136.7261221"
    },
    {
        "No.": "269",
        "共通ID": "E2323200062201",
        "name": "垣見鉄工株式会社（倉庫２階食堂等）",
        "address": "愛知県愛西市北一色町東田面90",
        "latitude": "35.146766",
        "longitude": "136.731065"
    },
    {
        "No.": "270",
        "共通ID": "E2323200063203",
        "name": "北河田小学校（校舎）",
        "address": "愛知県愛西市北河田町郷前406",
        "latitude": "35.18791524",
        "longitude": "136.7431714"
    },
    {
        "No.": "271",
        "共通ID": "E2323200063202",
        "name": "北河田小学校（体育館）",
        "address": "愛知県愛西市北河田町郷前406",
        "latitude": "35.1878977",
        "longitude": "136.7426188"
    },
    {
        "No.": "272",
        "共通ID": "E2323200063201",
        "name": "北河田小学校（運動場）",
        "address": "愛知県愛西市北河田町郷前406",
        "latitude": "35.187495",
        "longitude": "136.743119"
    },
    {
        "No.": "273",
        "共通ID": "E2323200064201",
        "name": "佐川急便株式会社佐屋営業所（２階以上）",
        "address": "愛知県愛西市本部田町鴨田58-1",
        "latitude": "35.13258343",
        "longitude": "136.7405651"
    },
    {
        "No.": "274",
        "共通ID": "E2323200065201",
        "name": "あいち海部農業協同組合市江支店（２階）",
        "address": "愛知県愛西市本部田町宮ノ切252-1",
        "latitude": "35.132102",
        "longitude": "136.735107"
    },
    {
        "No.": "275",
        "共通ID": "E2323200066201",
        "name": "あいち海部農業協同組合佐屋支店（２階）",
        "address": "愛知県愛西市柚木町東田面822",
        "latitude": "35.162531",
        "longitude": "136.727887"
    },
    {
        "No.": "276",
        "共通ID": "E2323200067201",
        "name": "親水公園総合体育館",
        "address": "愛知県愛西市落合町上通21",
        "latitude": "35.14770163",
        "longitude": "136.7392464"
    },
    {
        "No.": "277",
        "共通ID": "E2323200068202",
        "name": "八輪小学校（体育館）",
        "address": "愛知県愛西市立石町宮西39",
        "latitude": "35.21597944",
        "longitude": "136.6903932"
    },
    {
        "No.": "278",
        "共通ID": "E2323200068201",
        "name": "八輪小学校（運動場）",
        "address": "愛知県愛西市立石町宮西39",
        "latitude": "35.215273",
        "longitude": "136.690784"
    },
    {
        "No.": "279",
        "共通ID": "E2323200068203",
        "name": "八輪小学校（校舎）（洪水は２階以上）",
        "address": "愛知県愛西市立石町宮西39",
        "latitude": "35.21567266",
        "longitude": "136.6908492"
    },
    {
        "No.": "280",
        "共通ID": "E2323200069201",
        "name": "船頭平閘門管理所及び周辺施設（屋外等）",
        "address": "愛知県愛西市立田町十六石山",
        "latitude": "35.13235643",
        "longitude": "136.6811062"
    },
    {
        "No.": "281",
        "共通ID": "E2323200070201",
        "name": "旧農村環境改善センター（駐車場）",
        "address": "愛知県愛西市立田町福原3",
        "latitude": "35.144308",
        "longitude": "136.674648"
    },
    {
        "No.": "282",
        "共通ID": "E2323200071202",
        "name": "愛西工科高校（体育館、武道場）（洪水は２階以上）",
        "address": "愛知県愛西市渕高町蔭島1",
        "latitude": "35.218301",
        "longitude": "136.724719"
    },
    {
        "No.": "283",
        "共通ID": "E2323200071201",
        "name": "愛西工科高校（運動場）",
        "address": "愛知県愛西市渕高町蔭島1",
        "latitude": "35.216925",
        "longitude": "136.723727"
    },
    {
        "No.": "284",
        "共通ID": "E2323200071203",
        "name": "愛西工科高校（校舎）（洪水は２階以上）",
        "address": "愛知県愛西市渕高町蔭島1",
        "latitude": "35.21845",
        "longitude": "136.723893"
    },
    {
        "No.": "285",
        "共通ID": "E2323200072201",
        "name": "川渕地域防災コミュニティセンター（洪水は２階以上）",
        "address": "愛知県愛西市渕高町権左38-2",
        "latitude": "35.21464498",
        "longitude": "136.725276"
    },
    {
        "No.": "286",
        "共通ID": "E2321200002201",
        "name": "昭林公園",
        "address": "愛知県安城市安城町広美1-1",
        "latitude": "34.9463194",
        "longitude": "137.0755692"
    },
    {
        "No.": "287",
        "共通ID": "E2321200001201",
        "name": "昭林公民館",
        "address": "愛知県安城市安城町広美10-1",
        "latitude": "34.94550827",
        "longitude": "137.0764087"
    },
    {
        "No.": "288",
        "共通ID": "E2321200003201",
        "name": "祥南小学校",
        "address": "愛知県安城市安城町庚申11",
        "latitude": "34.93880438",
        "longitude": "137.0853276"
    },
    {
        "No.": "289",
        "共通ID": "E2321200004201",
        "name": "南部保育園",
        "address": "愛知県安城市安城町小圦22-1",
        "latitude": "34.94355449",
        "longitude": "137.0946873"
    },
    {
        "No.": "290",
        "共通ID": "E2321200005201",
        "name": "安祥公民館",
        "address": "愛知県安城市安城町城堀30",
        "latitude": "34.94628",
        "longitude": "137.098297"
    },
    {
        "No.": "291",
        "共通ID": "E2321200006201",
        "name": "安城南部小学校",
        "address": "愛知県安城市安城町城堀48",
        "latitude": "34.9452296",
        "longitude": "137.0955071"
    },
    {
        "No.": "292",
        "共通ID": "E2321200007201",
        "name": "安祥福祉センター",
        "address": "愛知県安城市安城町多門96",
        "latitude": "34.94328455",
        "longitude": "137.0927786"
    },
    {
        "No.": "293",
        "共通ID": "E2321200008201",
        "name": "安祥中学校",
        "address": "愛知県安城市安城町天草23",
        "latitude": "34.94262303",
        "longitude": "137.0888487"
    },
    {
        "No.": "294",
        "共通ID": "E2321200009201",
        "name": "明専公園",
        "address": "愛知県安城市井杭山町高見1-1",
        "latitude": "34.97370726",
        "longitude": "137.0596214"
    },
    {
        "No.": "295",
        "共通ID": "E2321200010201",
        "name": "榎前農村公園",
        "address": "愛知県安城市榎前町北榎10-1",
        "latitude": "34.93291972",
        "longitude": "137.0378869"
    },
    {
        "No.": "296",
        "共通ID": "E2321200011201",
        "name": "えのきこども園",
        "address": "愛知県安城市榎前町北榎5-1",
        "latitude": "34.9340886",
        "longitude": "137.0381803"
    },
    {
        "No.": "297",
        "共通ID": "E2321200012201",
        "name": "横山公園",
        "address": "愛知県安城市横山町浜畔上110",
        "latitude": "34.9556261",
        "longitude": "137.0768985"
    },
    {
        "No.": "298",
        "共通ID": "E2321200182201",
        "name": "花ノ木公園",
        "address": "愛知県安城市花ノ木町66-18",
        "latitude": "34.95811",
        "longitude": "137.082508"
    },
    {
        "No.": "299",
        "共通ID": "E2321200013201",
        "name": "志貴小学校",
        "address": "愛知県安城市柿碕町御用地45",
        "latitude": "34.97991151",
        "longitude": "137.1160211"
    },
    {
        "No.": "300",
        "共通ID": "E2321200014201",
        "name": "錦公園",
        "address": "愛知県安城市錦町123",
        "latitude": "34.95263315",
        "longitude": "137.0844552"
    },
    {
        "No.": "301",
        "共通ID": "E2321200015201",
        "name": "錦町小学校",
        "address": "愛知県安城市錦町9-39",
        "latitude": "34.95267323",
        "longitude": "137.0832996"
    },
    {
        "No.": "302",
        "共通ID": "E2321200016201",
        "name": "三ツ塚公園",
        "address": "愛知県安城市古井町三ツ塚12-1",
        "latitude": "34.93507029",
        "longitude": "137.0925956"
    },
    {
        "No.": "303",
        "共通ID": "E2321200017201",
        "name": "ゆたか保育園",
        "address": "愛知県安城市古井町豊日25",
        "latitude": "34.93563185",
        "longitude": "137.0945588"
    },
    {
        "No.": "304",
        "共通ID": "E2321200018201",
        "name": "御幸公園",
        "address": "愛知県安城市御幸本町504-3",
        "latitude": "34.95865027",
        "longitude": "137.0833656"
    },
    {
        "No.": "305",
        "共通ID": "E2321200019201",
        "name": "高棚こども園",
        "address": "愛知県安城市高棚町郷181",
        "latitude": "34.94206012",
        "longitude": "137.0236995"
    },
    {
        "No.": "306",
        "共通ID": "E2321200020201",
        "name": "高棚宮西公園",
        "address": "愛知県安城市高棚町中敷173-2",
        "latitude": "34.94300039",
        "longitude": "137.0200061"
    },
    {
        "No.": "307",
        "共通ID": "E2321200021201",
        "name": "高棚小学校",
        "address": "愛知県安城市高棚町蛭田44",
        "latitude": "34.94444302",
        "longitude": "137.0275345"
    },
    {
        "No.": "308",
        "共通ID": "E2321200022201",
        "name": "前之池公園",
        "address": "愛知県安城市今池町1-8",
        "latitude": "34.98494027",
        "longitude": "137.0862252"
    },
    {
        "No.": "309",
        "共通ID": "E2321200023201",
        "name": "今池小学校",
        "address": "愛知県安城市今池町2-1-52",
        "latitude": "34.98228363",
        "longitude": "137.0862639"
    },
    {
        "No.": "310",
        "共通ID": "E2321200024201",
        "name": "仲畔公園",
        "address": "愛知県安城市今本町4-3-14",
        "latitude": "34.99326584",
        "longitude": "137.0802388"
    },
    {
        "No.": "311",
        "共通ID": "E2321200025201",
        "name": "代官公園",
        "address": "愛知県安城市今本町4-9-15",
        "latitude": "34.99422218",
        "longitude": "137.0781915"
    },
    {
        "No.": "312",
        "共通ID": "E2321200026201",
        "name": "塔ノ下公園",
        "address": "愛知県安城市今本町8-2-8",
        "latitude": "34.994047",
        "longitude": "137.0850369"
    },
    {
        "No.": "313",
        "共通ID": "E2321200027201",
        "name": "あけぼの保育園",
        "address": "愛知県安城市今本町8-9-8",
        "latitude": "34.9936459",
        "longitude": "137.0876806"
    },
    {
        "No.": "314",
        "共通ID": "E2321200028201",
        "name": "安城北部小学校",
        "address": "愛知県安城市今本町8-9-9",
        "latitude": "34.99302448",
        "longitude": "137.0870314"
    },
    {
        "No.": "315",
        "共通ID": "E2321200031201",
        "name": "桜井保育園",
        "address": "愛知県安城市桜井町宮下14",
        "latitude": "34.92612287",
        "longitude": "137.0973072"
    },
    {
        "No.": "316",
        "共通ID": "E2321200189201",
        "name": "とうみづか公園",
        "address": "愛知県安城市桜井町桜西1-11-4",
        "latitude": "34.91585002",
        "longitude": "137.0871486"
    },
    {
        "No.": "317",
        "共通ID": "E2321200193202",
        "name": "桜井福祉センター",
        "address": "愛知県安城市桜井町桜西1-2-6",
        "latitude": "34.9188469",
        "longitude": "137.0867276"
    },
    {
        "No.": "318",
        "共通ID": "E2321200193201",
        "name": "さくら保育園",
        "address": "愛知県安城市桜井町桜西1-2-6",
        "latitude": "34.91828827",
        "longitude": "137.0868939"
    },
    {
        "No.": "319",
        "共通ID": "E2321200192201",
        "name": "桜井駅前公園",
        "address": "愛知県安城市桜井町桜西1-3-1",
        "latitude": "34.9187815",
        "longitude": "137.0879264"
    },
    {
        "No.": "320",
        "共通ID": "E2321200197201",
        "name": "桜西公園",
        "address": "愛知県安城市桜井町桜西2-10-1",
        "latitude": "34.9162829",
        "longitude": "137.0833977"
    },
    {
        "No.": "321",
        "共通ID": "E2321200033201",
        "name": "城山公園",
        "address": "愛知県安城市桜井町城阿原59",
        "latitude": "34.92090173",
        "longitude": "137.0928195"
    },
    {
        "No.": "322",
        "共通ID": "E2321200184201",
        "name": "城向のびのび公園",
        "address": "愛知県安城市桜井町城向1-10-7",
        "latitude": "34.919023",
        "longitude": "137.091123"
    },
    {
        "No.": "323",
        "共通ID": "E2321200185201",
        "name": "ふれあい城西公園",
        "address": "愛知県安城市桜井町城向2-8-1",
        "latitude": "34.921529",
        "longitude": "137.087666"
    },
    {
        "No.": "324",
        "共通ID": "E2321200186201",
        "name": "桜井駅西公園",
        "address": "愛知県安城市桜井町城向3-9-1",
        "latitude": "34.920007",
        "longitude": "137.085044"
    },
    {
        "No.": "325",
        "共通ID": "E2321200038201",
        "name": "桜井公民館",
        "address": "愛知県安城市桜井町大役田1-1",
        "latitude": "34.91577546",
        "longitude": "137.089458"
    },
    {
        "No.": "326",
        "共通ID": "E2321200039201",
        "name": "桜林小学校",
        "address": "愛知県安城市桜井町中狭間35-1",
        "latitude": "34.92291255",
        "longitude": "137.0967631"
    },
    {
        "No.": "327",
        "共通ID": "E2321200041201",
        "name": "安城南高等学校",
        "address": "愛知県安城市桜井町門原1",
        "latitude": "34.92006314",
        "longitude": "137.074976"
    },
    {
        "No.": "328",
        "共通ID": "E2321200042201",
        "name": "桜町小学校",
        "address": "愛知県安城市桜町15-5",
        "latitude": "34.96021943",
        "longitude": "137.0800826"
    },
    {
        "No.": "329",
        "共通ID": "E2321200043201",
        "name": "文化センター",
        "address": "愛知県安城市桜町17-11",
        "latitude": "34.95938847",
        "longitude": "137.0810932"
    },
    {
        "No.": "330",
        "共通ID": "E2321200044201",
        "name": "安城公園・安城市役所",
        "address": "愛知県安城市桜町289-1",
        "latitude": "34.95885357",
        "longitude": "137.0792843"
    },
    {
        "No.": "331",
        "共通ID": "E2321200045201",
        "name": "正福田公園",
        "address": "愛知県安城市三河安城町1-13-1",
        "latitude": "34.96865826",
        "longitude": "137.0645354"
    },
    {
        "No.": "332",
        "共通ID": "E2321200046201",
        "name": "神楽山公園",
        "address": "愛知県安城市三河安城町2-5-1",
        "latitude": "34.97169532",
        "longitude": "137.0623269"
    },
    {
        "No.": "333",
        "共通ID": "E2321200047201",
        "name": "すりばち公園",
        "address": "愛知県安城市三河安城東町1-14-1",
        "latitude": "34.96331803",
        "longitude": "137.0674309"
    },
    {
        "No.": "334",
        "共通ID": "E2321200048201",
        "name": "箕畔公園",
        "address": "愛知県安城市三河安城東町1-2-1",
        "latitude": "34.96539442",
        "longitude": "137.0644198"
    },
    {
        "No.": "335",
        "共通ID": "E2321200049201",
        "name": "管池公園",
        "address": "愛知県安城市三河安城東町1-21-1",
        "latitude": "34.96430477",
        "longitude": "137.0703031"
    },
    {
        "No.": "336",
        "共通ID": "E2321200050201",
        "name": "三河東町公園",
        "address": "愛知県安城市三河安城東町2-9-1",
        "latitude": "34.96713104",
        "longitude": "137.0683361"
    },
    {
        "No.": "337",
        "共通ID": "E2321200051201",
        "name": "三河安城ツインパーク",
        "address": "愛知県安城市三河安城南町1-2-1",
        "latitude": "34.9659396",
        "longitude": "137.0609391"
    },
    {
        "No.": "338",
        "共通ID": "E2321200052201",
        "name": "二本木公民館",
        "address": "愛知県安城市三河安城本町1-13-9",
        "latitude": "34.972259",
        "longitude": "137.055978"
    },
    {
        "No.": "339",
        "共通ID": "E2321200053201",
        "name": "長根公園",
        "address": "愛知県安城市三河安城本町1-35-1",
        "latitude": "34.96961065",
        "longitude": "137.0583906"
    },
    {
        "No.": "340",
        "共通ID": "E2321200054201",
        "name": "舞山公園",
        "address": "愛知県安城市三河安城本町2-12-1",
        "latitude": "34.96708976",
        "longitude": "137.0560716"
    },
    {
        "No.": "341",
        "共通ID": "E2321200055201",
        "name": "三ツ川こども園",
        "address": "愛知県安城市寺領町願明85",
        "latitude": "34.89710122",
        "longitude": "137.0861914"
    },
    {
        "No.": "342",
        "共通ID": "E2321200056201",
        "name": "篠目公園",
        "address": "愛知県安城市篠目町1-9",
        "latitude": "34.97716568",
        "longitude": "137.0708081"
    },
    {
        "No.": "343",
        "共通ID": "E2321200057201",
        "name": "段留公園",
        "address": "愛知県安城市篠目町3-1-8",
        "latitude": "34.98029255",
        "longitude": "137.0730131"
    },
    {
        "No.": "344",
        "共通ID": "E2321200058201",
        "name": "新段留公園",
        "address": "愛知県安城市篠目町4-16",
        "latitude": "34.98072519",
        "longitude": "137.0747855"
    },
    {
        "No.": "345",
        "共通ID": "E2321200059201",
        "name": "作野小学校",
        "address": "愛知県安城市篠目町4-22-1",
        "latitude": "34.98137764",
        "longitude": "137.0760251"
    },
    {
        "No.": "346",
        "共通ID": "E2321200060201",
        "name": "作野公園",
        "address": "愛知県安城市篠目町4-22-20",
        "latitude": "34.98211463",
        "longitude": "137.0766757"
    },
    {
        "No.": "347",
        "共通ID": "E2321200061201",
        "name": "さくのこども園",
        "address": "愛知県安城市篠目町4-22-21",
        "latitude": "34.98145954",
        "longitude": "137.0771879"
    },
    {
        "No.": "348",
        "共通ID": "E2321200062201",
        "name": "作野保育園",
        "address": "愛知県安城市篠目町4-7-1",
        "latitude": "34.97962214",
        "longitude": "137.0736613"
    },
    {
        "No.": "349",
        "共通ID": "E2321200063201",
        "name": "作野公民館",
        "address": "愛知県安城市篠目町古林畔26",
        "latitude": "34.978368",
        "longitude": "137.077687"
    },
    {
        "No.": "350",
        "共通ID": "E2321200064201",
        "name": "梨の里小学校",
        "address": "愛知県安城市篠目町溝川38",
        "latitude": "34.97464173",
        "longitude": "137.0655537"
    },
    {
        "No.": "351",
        "共通ID": "E2321200065201",
        "name": "のぞみ公園",
        "address": "愛知県安城市篠目町童子208-1",
        "latitude": "34.97130499",
        "longitude": "137.0666254"
    },
    {
        "No.": "352",
        "共通ID": "E2321200066201",
        "name": "作野福祉センター",
        "address": "愛知県安城市篠目町二タ又27-1",
        "latitude": "34.981731",
        "longitude": "137.06852"
    },
    {
        "No.": "353",
        "共通ID": "E2321200067201",
        "name": "篠目中学校",
        "address": "愛知県安城市篠目町竜田151",
        "latitude": "34.98253841",
        "longitude": "137.0664762"
    },
    {
        "No.": "354",
        "共通ID": "E2321200068201",
        "name": "大西公園",
        "address": "愛知県安城市住吉町1-5",
        "latitude": "34.98945",
        "longitude": "137.07907"
    },
    {
        "No.": "355",
        "共通ID": "E2321200069201",
        "name": "唐池公園",
        "address": "愛知県安城市住吉町5-32-2",
        "latitude": "34.99015793",
        "longitude": "137.0750606"
    },
    {
        "No.": "356",
        "共通ID": "E2321200070201",
        "name": "横枕公園",
        "address": "愛知県安城市住吉町5-9-4",
        "latitude": "34.9881821",
        "longitude": "137.0727967"
    },
    {
        "No.": "357",
        "共通ID": "E2321200071201",
        "name": "住吉公園",
        "address": "愛知県安城市住吉町6-7-8",
        "latitude": "34.98750705",
        "longitude": "137.0779253"
    },
    {
        "No.": "358",
        "共通ID": "E2321200072201",
        "name": "大丸山公園",
        "address": "愛知県安城市住吉町7-83-1",
        "latitude": "34.98668331",
        "longitude": "137.0751913"
    },
    {
        "No.": "359",
        "共通ID": "E2321200073201",
        "name": "荒曽根公園",
        "address": "愛知県安城市住吉町小根32-1",
        "latitude": "34.97867659",
        "longitude": "137.0802053"
    },
    {
        "No.": "360",
        "共通ID": "E2321200191201",
        "name": "金政公園",
        "address": "愛知県安城市小川町金政608-1",
        "latitude": "34.90999074",
        "longitude": "137.0861622"
    },
    {
        "No.": "361",
        "共通ID": "E2321200076201",
        "name": "小川保育園",
        "address": "愛知県安城市小川町志茂188",
        "latitude": "34.90714784",
        "longitude": "137.0920531"
    },
    {
        "No.": "362",
        "共通ID": "E2321200077201",
        "name": "桜井小学校",
        "address": "愛知県安城市小川町清水道6-1",
        "latitude": "34.90758362",
        "longitude": "137.0866413"
    },
    {
        "No.": "363",
        "共通ID": "E2321200078201",
        "name": "桜井中学校",
        "address": "愛知県安城市小川町的場丘1-1",
        "latitude": "34.91243786",
        "longitude": "137.089569"
    },
    {
        "No.": "364",
        "共通ID": "E2321200079201",
        "name": "本城公園",
        "address": "愛知県安城市小川町的場丘13",
        "latitude": "34.9100018",
        "longitude": "137.0911711"
    },
    {
        "No.": "365",
        "共通ID": "E2321200080201",
        "name": "的場公園",
        "address": "愛知県安城市小川町的場丘8",
        "latitude": "34.91167039",
        "longitude": "137.091112"
    },
    {
        "No.": "366",
        "共通ID": "E2321200081201",
        "name": "桜井中央公園",
        "address": "愛知県安城市小川町堂開道1-1",
        "latitude": "34.91284513",
        "longitude": "137.0930051"
    },
    {
        "No.": "367",
        "共通ID": "E2321200082201",
        "name": "大福公園",
        "address": "愛知県安城市小川町福地267",
        "latitude": "34.90815526",
        "longitude": "137.1046409"
    },
    {
        "No.": "368",
        "共通ID": "E2321200083201",
        "name": "小堤公園",
        "address": "愛知県安城市小堤町245",
        "latitude": "34.95426299",
        "longitude": "137.0811918"
    },
    {
        "No.": "369",
        "共通ID": "E2321200084201",
        "name": "昭和公園",
        "address": "愛知県安城市昭和町822",
        "latitude": "34.96349582",
        "longitude": "137.0892423"
    },
    {
        "No.": "370",
        "共通ID": "E2321200181201",
        "name": "城ケ入こども園",
        "address": "愛知県安城市城ヶ入町丸根3",
        "latitude": "34.90466602",
        "longitude": "137.049729"
    },
    {
        "No.": "371",
        "共通ID": "E2321200086201",
        "name": "細田公園",
        "address": "愛知県安城市城南町1-14-1",
        "latitude": "34.9516368",
        "longitude": "137.0785914"
    },
    {
        "No.": "372",
        "共通ID": "E2321200087201",
        "name": "安城南中学校",
        "address": "愛知県安城市城南町2-7-2",
        "latitude": "34.94805389",
        "longitude": "137.0772107"
    },
    {
        "No.": "373",
        "共通ID": "E2321200088201",
        "name": "新田保育園",
        "address": "愛知県安城市新田町郷西99",
        "latitude": "34.9625047",
        "longitude": "137.0937045"
    },
    {
        "No.": "374",
        "共通ID": "E2321200089201",
        "name": "安城北中学校",
        "address": "愛知県安城市新田町小山西18",
        "latitude": "34.97007854",
        "longitude": "137.0879686"
    },
    {
        "No.": "375",
        "共通ID": "E2321200090201",
        "name": "中部公民館",
        "address": "愛知県安城市新田町小山西83",
        "latitude": "34.97189598",
        "longitude": "137.0870183"
    },
    {
        "No.": "376",
        "共通ID": "E2321200091201",
        "name": "新田小学校",
        "address": "愛知県安城市新田町新栄100",
        "latitude": "34.96816941",
        "longitude": "137.0944592"
    },
    {
        "No.": "377",
        "共通ID": "E2321200092201",
        "name": "中部福祉センター",
        "address": "愛知県安城市新田町新栄84-1",
        "latitude": "34.97060016",
        "longitude": "137.0925498"
    },
    {
        "No.": "378",
        "共通ID": "E2321200093201",
        "name": "安城市体育館",
        "address": "愛知県安城市新田町新定山41-8",
        "latitude": "34.97186088",
        "longitude": "137.0900559"
    },
    {
        "No.": "379",
        "共通ID": "E2321200094202",
        "name": "安城市総合運動公園",
        "address": "愛知県安城市新田町池田上1",
        "latitude": "34.97275852",
        "longitude": "137.0887428"
    },
    {
        "No.": "380",
        "共通ID": "E2321200094201",
        "name": "青少年の家",
        "address": "愛知県安城市新田町池田上1",
        "latitude": "34.97449282",
        "longitude": "137.0887729"
    },
    {
        "No.": "381",
        "共通ID": "E2321200095201",
        "name": "新田公園",
        "address": "愛知県安城市新明町21-1",
        "latitude": "34.95983394",
        "longitude": "137.0963011"
    },
    {
        "No.": "382",
        "共通ID": "E2321200096201",
        "name": "赤松保育園",
        "address": "愛知県安城市赤松町隅田川55",
        "latitude": "34.93794726",
        "longitude": "137.0694683"
    },
    {
        "No.": "383",
        "共通ID": "E2321200097201",
        "name": "赤松農村公園",
        "address": "愛知県安城市赤松町前川70-1",
        "latitude": "34.93970682",
        "longitude": "137.0653027"
    },
    {
        "No.": "384",
        "共通ID": "E2321200098201",
        "name": "安城高等学校",
        "address": "愛知県安城市赤松町大北103",
        "latitude": "34.94673542",
        "longitude": "137.069996"
    },
    {
        "No.": "385",
        "共通ID": "E2321200099201",
        "name": "総合福祉センター",
        "address": "愛知県安城市赤松町大北78-1",
        "latitude": "34.94520217",
        "longitude": "137.0723868"
    },
    {
        "No.": "386",
        "共通ID": "E2321200100201",
        "name": "川島七反避難場所",
        "address": "愛知県安城市川島町七反9",
        "latitude": "34.9219624",
        "longitude": "137.1093921"
    },
    {
        "No.": "387",
        "共通ID": "E2321200101201",
        "name": "安城こども園",
        "address": "愛知県安城市相生町18-7",
        "latitude": "34.9541588",
        "longitude": "137.0855683"
    },
    {
        "No.": "388",
        "共通ID": "E2321200102201",
        "name": "朝日公園",
        "address": "愛知県安城市相生町318",
        "latitude": "34.95544375",
        "longitude": "137.0885231"
    },
    {
        "No.": "389",
        "共通ID": "E2321200103201",
        "name": "東部公民館",
        "address": "愛知県安城市大岡町源覚16",
        "latitude": "34.96062541",
        "longitude": "137.1062138"
    },
    {
        "No.": "390",
        "共通ID": "E2321200104201",
        "name": "東部こども園",
        "address": "愛知県安城市大岡町源覚45",
        "latitude": "34.96001071",
        "longitude": "137.1054405"
    },
    {
        "No.": "391",
        "共通ID": "E2321200105201",
        "name": "安城東部小学校",
        "address": "愛知県安城市大岡町前畑72-1",
        "latitude": "34.95678093",
        "longitude": "137.1072865"
    },
    {
        "No.": "392",
        "共通ID": "E2321200106201",
        "name": "錦保育園",
        "address": "愛知県安城市大山町1-19-15",
        "latitude": "34.95131508",
        "longitude": "137.0830421"
    },
    {
        "No.": "393",
        "共通ID": "E2321200107201",
        "name": "秋葉公園",
        "address": "愛知県安城市大山町1-7-1",
        "latitude": "34.94897185",
        "longitude": "137.0868086"
    },
    {
        "No.": "394",
        "共通ID": "E2321200108201",
        "name": "大山公園",
        "address": "愛知県安城市大山町2-6-1",
        "latitude": "34.9491166",
        "longitude": "137.0826903"
    },
    {
        "No.": "395",
        "共通ID": "E2321200109201",
        "name": "安城市民交流センター",
        "address": "愛知県安城市大東町11-3",
        "latitude": "34.96338378",
        "longitude": "137.0846386"
    },
    {
        "No.": "396",
        "共通ID": "E2321200110201",
        "name": "安城保育園",
        "address": "愛知県安城市大東町11-30",
        "latitude": "34.9637559",
        "longitude": "137.0843315"
    },
    {
        "No.": "397",
        "共通ID": "E2321200111201",
        "name": "安城中部小学校",
        "address": "愛知県安城市大東町12-8",
        "latitude": "34.96496905",
        "longitude": "137.0850031"
    },
    {
        "No.": "398",
        "共通ID": "E2321200112201",
        "name": "大池公園",
        "address": "愛知県安城市大東町1675-2",
        "latitude": "34.96820574",
        "longitude": "137.0843117"
    },
    {
        "No.": "399",
        "共通ID": "E2321200113201",
        "name": "安城北部こども園",
        "address": "愛知県安城市大東町25-40",
        "latitude": "34.96835162",
        "longitude": "137.0853165"
    },
    {
        "No.": "400",
        "共通ID": "E2321200183201",
        "name": "大東公園",
        "address": "愛知県安城市大東町829-3",
        "latitude": "34.962543",
        "longitude": "137.081657"
    },
    {
        "No.": "401",
        "共通ID": "E2321200114201",
        "name": "池浦西公園",
        "address": "愛知県安城市池浦町狐穴15-1",
        "latitude": "34.96627733",
        "longitude": "137.0735053"
    },
    {
        "No.": "402",
        "共通ID": "E2321200115201",
        "name": "池浦公園",
        "address": "愛知県安城市池浦町池東13-1",
        "latitude": "34.97556959",
        "longitude": "137.088566"
    },
    {
        "No.": "403",
        "共通ID": "E2321200116201",
        "name": "安城農林高等学校",
        "address": "愛知県安城市池浦町茶筅木1",
        "latitude": "34.96899123",
        "longitude": "137.0780112"
    },
    {
        "No.": "404",
        "共通ID": "E2321200117201",
        "name": "追田公園",
        "address": "愛知県安城市朝日町557-1",
        "latitude": "34.95822643",
        "longitude": "137.0883951"
    },
    {
        "No.": "405",
        "共通ID": "E2321200118201",
        "name": "今村公園",
        "address": "愛知県安城市東栄町1-11",
        "latitude": "34.9891557",
        "longitude": "137.0824754"
    },
    {
        "No.": "406",
        "共通ID": "E2321200119201",
        "name": "曙公園",
        "address": "愛知県安城市東栄町3-11-5",
        "latitude": "34.98768465",
        "longitude": "137.087955"
    },
    {
        "No.": "407",
        "共通ID": "E2321200120201",
        "name": "東栄こども園",
        "address": "愛知県安城市東栄町3-809-9",
        "latitude": "34.98693757",
        "longitude": "137.0923035"
    },
    {
        "No.": "408",
        "共通ID": "E2321200121201",
        "name": "東栄公園",
        "address": "愛知県安城市東栄町4-20-5",
        "latitude": "34.98772393",
        "longitude": "137.0927391"
    },
    {
        "No.": "409",
        "共通ID": "E2321200122201",
        "name": "今東公園",
        "address": "愛知県安城市東栄町4-6-4",
        "latitude": "34.9893733",
        "longitude": "137.0906304"
    },
    {
        "No.": "410",
        "共通ID": "E2321200123201",
        "name": "上倉公園",
        "address": "愛知県安城市東栄町5-15",
        "latitude": "34.98454063",
        "longitude": "137.0947313"
    },
    {
        "No.": "411",
        "共通ID": "E2321200124201",
        "name": "高根公園",
        "address": "愛知県安城市東栄町5-27-2",
        "latitude": "34.98796968",
        "longitude": "137.0960432"
    },
    {
        "No.": "412",
        "共通ID": "E2321200125201",
        "name": "横根畑公園",
        "address": "愛知県安城市東栄町6-4",
        "latitude": "34.9823946",
        "longitude": "137.0961349"
    },
    {
        "No.": "413",
        "共通ID": "E2321200126202",
        "name": "柳原公園",
        "address": "愛知県安城市東栄町6-9",
        "latitude": "34.98391788",
        "longitude": "137.0972491"
    },
    {
        "No.": "414",
        "共通ID": "E2321200126201",
        "name": "北部福祉センター",
        "address": "愛知県安城市東栄町6-9",
        "latitude": "34.98449346",
        "longitude": "137.0977199"
    },
    {
        "No.": "415",
        "共通ID": "E2321200127201",
        "name": "安城東公園",
        "address": "愛知県安城市東新町14-1",
        "latitude": "34.95697623",
        "longitude": "137.0980859"
    },
    {
        "No.": "416",
        "共通ID": "E2321200128201",
        "name": "東端公園",
        "address": "愛知県安城市東端町稲荷32",
        "latitude": "34.91215195",
        "longitude": "137.0261916"
    },
    {
        "No.": "417",
        "共通ID": "E2321200129201",
        "name": "明祥中学校",
        "address": "愛知県安城市東端町住吉1-12",
        "latitude": "34.90569532",
        "longitude": "137.0270321"
    },
    {
        "No.": "418",
        "共通ID": "E2321200130201",
        "name": "東端保育園",
        "address": "愛知県安城市東端町住吉61-6",
        "latitude": "34.90546799",
        "longitude": "137.025684"
    },
    {
        "No.": "419",
        "共通ID": "E2321200131201",
        "name": "明和小学校",
        "address": "愛知県安城市東端町明和66",
        "latitude": "34.90412594",
        "longitude": "137.0272599"
    },
    {
        "No.": "420",
        "共通ID": "E2321200132201",
        "name": "別所団地公園",
        "address": "愛知県安城市東別所町戌新畑1-94",
        "latitude": "34.96949926",
        "longitude": "137.1133344"
    },
    {
        "No.": "421",
        "共通ID": "E2321200133201",
        "name": "毘沙門公園",
        "address": "愛知県安城市東明町11-10",
        "latitude": "34.95225979",
        "longitude": "137.0959691"
    },
    {
        "No.": "422",
        "共通ID": "E2321200134201",
        "name": "藤井公園",
        "address": "愛知県安城市藤井町東山106-1",
        "latitude": "34.89217663",
        "longitude": "137.0884095"
    },
    {
        "No.": "423",
        "共通ID": "E2321200135201",
        "name": "南公園",
        "address": "愛知県安城市南町27",
        "latitude": "34.95188403",
        "longitude": "137.0885496"
    },
    {
        "No.": "424",
        "共通ID": "E2321200136201",
        "name": "養下公園",
        "address": "愛知県安城市二本木新町2-5-1",
        "latitude": "34.97767246",
        "longitude": "137.055386"
    },
    {
        "No.": "425",
        "共通ID": "E2321200137201",
        "name": "日の出公園",
        "address": "愛知県安城市日の出町2",
        "latitude": "34.95527709",
        "longitude": "137.0924965"
    },
    {
        "No.": "426",
        "共通ID": "E2321200138201",
        "name": "志貴保育園",
        "address": "愛知県安城市尾崎町北裏49",
        "latitude": "34.97955538",
        "longitude": "137.115347"
    },
    {
        "No.": "427",
        "共通ID": "E2321200139201",
        "name": "中根公園",
        "address": "愛知県安城市美園町1-15",
        "latitude": "34.97737304",
        "longitude": "137.0483087"
    },
    {
        "No.": "428",
        "共通ID": "E2321200140201",
        "name": "みその保育園",
        "address": "愛知県安城市美園町1-29",
        "latitude": "34.97812892",
        "longitude": "137.0485702"
    },
    {
        "No.": "429",
        "共通ID": "E2321200141201",
        "name": "坪田公園",
        "address": "愛知県安城市美園町2-25",
        "latitude": "34.97500515",
        "longitude": "137.0543753"
    },
    {
        "No.": "430",
        "共通ID": "E2321200142201",
        "name": "美園公園",
        "address": "愛知県安城市美園町2-8",
        "latitude": "34.97600011",
        "longitude": "137.0513616"
    },
    {
        "No.": "431",
        "共通ID": "E2321200144201",
        "name": "鹿乗公園",
        "address": "愛知県安城市姫小川町鹿乗1-48",
        "latitude": "34.91204283",
        "longitude": "137.0951794"
    },
    {
        "No.": "432",
        "共通ID": "E2321200196201",
        "name": "桜井南公園",
        "address": "愛知県安城市姫小川町姫西1-12-1",
        "latitude": "34.91244424",
        "longitude": "137.0855552"
    },
    {
        "No.": "433",
        "共通ID": "E2321200195201",
        "name": "姫西せせらぎ公園",
        "address": "愛知県安城市姫小川町姫西2-6-1",
        "latitude": "34.91361853",
        "longitude": "137.0833915"
    },
    {
        "No.": "434",
        "共通ID": "E2321200194201",
        "name": "姫西ふれあい公園",
        "address": "愛知県安城市姫小川町姫西3-2-5",
        "latitude": "34.91487289",
        "longitude": "137.0798207"
    },
    {
        "No.": "435",
        "共通ID": "E2321200145201",
        "name": "石ナ曽根公園",
        "address": "愛知県安城市百石町1-10-1",
        "latitude": "34.95187172",
        "longitude": "137.076005"
    },
    {
        "No.": "436",
        "共通ID": "E2321200146201",
        "name": "百々目木公園",
        "address": "愛知県安城市百石町2-7-1",
        "latitude": "34.95006182",
        "longitude": "137.0739"
    },
    {
        "No.": "437",
        "共通ID": "E2321200147201",
        "name": "安城西部小学校",
        "address": "愛知県安城市福釜町猿町128",
        "latitude": "34.94434558",
        "longitude": "137.0585232"
    },
    {
        "No.": "438",
        "共通ID": "E2321200148201",
        "name": "西部保育園",
        "address": "愛知県安城市福釜町笠松102",
        "latitude": "34.94532655",
        "longitude": "137.0528322"
    },
    {
        "No.": "439",
        "共通ID": "E2321200149201",
        "name": "西部公民館",
        "address": "愛知県安城市福釜町釜ケ渕20-1",
        "latitude": "34.94696634",
        "longitude": "137.0440374"
    },
    {
        "No.": "440",
        "共通ID": "E2321200150201",
        "name": "西部福祉センター",
        "address": "愛知県安城市福釜町西天12",
        "latitude": "34.9477388",
        "longitude": "137.0444138"
    },
    {
        "No.": "441",
        "共通ID": "E2321200151201",
        "name": "安城西中学校",
        "address": "愛知県安城市福釜町中根43",
        "latitude": "34.94962492",
        "longitude": "137.0492086"
    },
    {
        "No.": "442",
        "共通ID": "E2321200152201",
        "name": "土器田公園",
        "address": "愛知県安城市法連町10-1",
        "latitude": "34.9566312",
        "longitude": "137.0935528"
    },
    {
        "No.": "443",
        "共通ID": "E2321200153201",
        "name": "安城東高等学校",
        "address": "愛知県安城市北山崎町大土塚10",
        "latitude": "34.96468545",
        "longitude": "137.1031149"
    },
    {
        "No.": "444",
        "共通ID": "E2321200154201",
        "name": "堀内公園",
        "address": "愛知県安城市堀内町安下1-1",
        "latitude": "34.92887127",
        "longitude": "137.0912048"
    },
    {
        "No.": "445",
        "共通ID": "E2321200155201",
        "name": "末広公園",
        "address": "愛知県安城市末広町23-33",
        "latitude": "34.95566311",
        "longitude": "137.0847016"
    },
    {
        "No.": "446",
        "共通ID": "E2321200156201",
        "name": "三河安城小学校",
        "address": "愛知県安城市箕輪町昭和47",
        "latitude": "34.9601803",
        "longitude": "137.0649078"
    },
    {
        "No.": "447",
        "共通ID": "E2321200157201",
        "name": "みのわ保育園",
        "address": "愛知県安城市箕輪町神戸169-3",
        "latitude": "34.95903739",
        "longitude": "137.0595927"
    },
    {
        "No.": "448",
        "共通ID": "E2321200158201",
        "name": "明本公園",
        "address": "愛知県安城市明治本町945",
        "latitude": "34.96172756",
        "longitude": "137.0914988"
    },
    {
        "No.": "449",
        "共通ID": "E2321200159201",
        "name": "木戸東公園",
        "address": "愛知県安城市木戸町丸池195",
        "latitude": "34.894727",
        "longitude": "137.091683"
    },
    {
        "No.": "450",
        "共通ID": "E2321200160201",
        "name": "きどはし公園",
        "address": "愛知県安城市木戸町西屋敷38-6",
        "latitude": "34.89688333",
        "longitude": "137.0887796"
    },
    {
        "No.": "451",
        "共通ID": "E2321200161201",
        "name": "里町公園",
        "address": "愛知県安城市里町1-14-4",
        "latitude": "34.99632476",
        "longitude": "137.0893945"
    },
    {
        "No.": "452",
        "共通ID": "E2321200162201",
        "name": "重原田公園",
        "address": "愛知県安城市里町1-29-9",
        "latitude": "34.99645558",
        "longitude": "137.0941966"
    },
    {
        "No.": "453",
        "共通ID": "E2321200163201",
        "name": "北部公民館",
        "address": "愛知県安城市里町4-12-4",
        "latitude": "34.99261029",
        "longitude": "137.0903752"
    },
    {
        "No.": "454",
        "共通ID": "E2321200164201",
        "name": "大道なかよし公園",
        "address": "愛知県安城市里町4-25-13",
        "latitude": "34.99254753",
        "longitude": "137.0937975"
    },
    {
        "No.": "455",
        "共通ID": "E2321200165201",
        "name": "柿田公園",
        "address": "愛知県安城市里町4-4",
        "latitude": "34.99340572",
        "longitude": "137.089651"
    },
    {
        "No.": "456",
        "共通ID": "E2321200166201",
        "name": "里町小学校",
        "address": "愛知県安城市里町足取1-5",
        "latitude": "34.99736841",
        "longitude": "137.0988707"
    },
    {
        "No.": "457",
        "共通ID": "E2321200167201",
        "name": "石橋公園",
        "address": "愛知県安城市里町足取3-86",
        "latitude": "34.99614666",
        "longitude": "137.0985219"
    },
    {
        "No.": "458",
        "共通ID": "E2321200168201",
        "name": "北大道寺公園",
        "address": "愛知県安城市里町大道寺4",
        "latitude": "34.9966971",
        "longitude": "137.0806001"
    },
    {
        "No.": "459",
        "共通ID": "E2321200169201",
        "name": "東山中学校",
        "address": "愛知県安城市里町東山1",
        "latitude": "34.99434252",
        "longitude": "137.1016114"
    },
    {
        "No.": "460",
        "共通ID": "E2321200170201",
        "name": "二本木小学校",
        "address": "愛知県安城市緑町1-23-1",
        "latitude": "34.97286433",
        "longitude": "137.0519736"
    },
    {
        "No.": "461",
        "共通ID": "E2321200171201",
        "name": "二本木保育園",
        "address": "愛知県安城市緑町1-29",
        "latitude": "34.97217865",
        "longitude": "137.0530779"
    },
    {
        "No.": "462",
        "共通ID": "E2321200172201",
        "name": "若葉公園",
        "address": "愛知県安城市緑町1-30-1",
        "latitude": "34.97234866",
        "longitude": "137.052466"
    },
    {
        "No.": "463",
        "共通ID": "E2321200173201",
        "name": "緑公園",
        "address": "愛知県安城市緑町1-6",
        "latitude": "34.97406125",
        "longitude": "137.0487267"
    },
    {
        "No.": "464",
        "共通ID": "E2321200174201",
        "name": "二本木公園",
        "address": "愛知県安城市緑町2-16",
        "latitude": "34.97056503",
        "longitude": "137.0492735"
    },
    {
        "No.": "465",
        "共通ID": "E2321200175201",
        "name": "弥厚公園",
        "address": "愛知県安城市和泉町宮前92",
        "latitude": "34.92162777",
        "longitude": "137.0483397"
    },
    {
        "No.": "466",
        "共通ID": "E2321200176201",
        "name": "明祥福祉センター",
        "address": "愛知県安城市和泉町大下38-1",
        "latitude": "34.912373",
        "longitude": "137.044036"
    },
    {
        "No.": "467",
        "共通ID": "E2321200176202",
        "name": "明祥公民館",
        "address": "愛知県安城市和泉町大下38-1",
        "latitude": "34.912373",
        "longitude": "137.044036"
    },
    {
        "No.": "468",
        "共通ID": "E2321200177201",
        "name": "和泉公園",
        "address": "愛知県安城市和泉町大海古1",
        "latitude": "34.91834734",
        "longitude": "137.0541974"
    },
    {
        "No.": "469",
        "共通ID": "E2321200178201",
        "name": "丈山小学校",
        "address": "愛知県安城市和泉町南本郷1",
        "latitude": "34.91863136",
        "longitude": "137.0465526"
    },
    {
        "No.": "470",
        "共通ID": "E2321200179201",
        "name": "和泉保育園",
        "address": "愛知県安城市和泉町北本郷237",
        "latitude": "34.92285645",
        "longitude": "137.0469722"
    },
    {
        "No.": "471",
        "共通ID": "E2320300001201",
        "name": "平島公園野球場グラウンド",
        "address": "愛知県一宮市羽衣2-5-3",
        "latitude": "35.305449",
        "longitude": "136.812962"
    },
    {
        "No.": "472",
        "共通ID": "E2320300002202",
        "name": "奥小学校グラウンド",
        "address": "愛知県一宮市奥町字貴船前24",
        "latitude": "35.325728",
        "longitude": "136.759014"
    },
    {
        "No.": "473",
        "共通ID": "E2320300003201",
        "name": "奥町公園グラウンド",
        "address": "愛知県一宮市奥町字宮郭７外",
        "latitude": "35.331289",
        "longitude": "136.769459"
    },
    {
        "No.": "474",
        "共通ID": "E2320300004202",
        "name": "奥中学校グラウンド",
        "address": "愛知県一宮市奥町字上平池55",
        "latitude": "35.32546",
        "longitude": "136.765136"
    },
    {
        "No.": "475",
        "共通ID": "E2320300005201",
        "name": "彦田公園グラウンド",
        "address": "愛知県一宮市花池4-25-1",
        "latitude": "35.288407",
        "longitude": "136.802662"
    },
    {
        "No.": "476",
        "共通ID": "E2320300006202",
        "name": "開明小学校グラウンド",
        "address": "愛知県一宮市開明字城堀20",
        "latitude": "35.321273",
        "longitude": "136.773057"
    },
    {
        "No.": "477",
        "共通ID": "E2320300007203",
        "name": "尾西第三中学校グラウンド",
        "address": "愛知県一宮市開明字村上54",
        "latitude": "35.316897",
        "longitude": "136.758969"
    },
    {
        "No.": "478",
        "共通ID": "E2320300008201",
        "name": "尾西運動場グラウンド",
        "address": "愛知県一宮市開明字柳苗代1-1",
        "latitude": "35.317199",
        "longitude": "136.765603"
    },
    {
        "No.": "479",
        "共通ID": "E2320300009203",
        "name": "北部中学校グラウンド",
        "address": "愛知県一宮市貴船1-6-10",
        "latitude": "35.311503",
        "longitude": "136.807578"
    },
    {
        "No.": "480",
        "共通ID": "E2320300010203",
        "name": "貴船小学校グラウンド",
        "address": "愛知県一宮市貴船1-8-46",
        "latitude": "35.311134",
        "longitude": "136.809449"
    },
    {
        "No.": "481",
        "共通ID": "E2320300011203",
        "name": "起小学校グラウンド",
        "address": "愛知県一宮市起字西生出35",
        "latitude": "35.305357",
        "longitude": "136.740206"
    },
    {
        "No.": "482",
        "共通ID": "E2320300012201",
        "name": "光明寺公園グラウンド",
        "address": "愛知県一宮市光明寺",
        "latitude": "35.359857",
        "longitude": "136.795275"
    },
    {
        "No.": "483",
        "共通ID": "E2320300012202",
        "name": "国営木曽三川公園三派川地区センターグラウンド",
        "address": "愛知県一宮市光明寺",
        "latitude": "35.356911",
        "longitude": "136.811258"
    },
    {
        "No.": "484",
        "共通ID": "E2320300014202",
        "name": "葉栗北小学校グラウンド",
        "address": "愛知県一宮市光明寺字畳手55",
        "latitude": "35.351123",
        "longitude": "136.80224"
    },
    {
        "No.": "485",
        "共通ID": "E2320300015203",
        "name": "向山小学校グラウンド",
        "address": "愛知県一宮市向山町3-1",
        "latitude": "35.29534",
        "longitude": "136.807781"
    },
    {
        "No.": "486",
        "共通ID": "E2320300016203",
        "name": "葉栗中学校グラウンド",
        "address": "愛知県一宮市高田字清水100",
        "latitude": "35.339582",
        "longitude": "136.80599"
    },
    {
        "No.": "487",
        "共通ID": "E2320300017203",
        "name": "今伊勢中学校グラウンド",
        "address": "愛知県一宮市今伊勢町宮後字郷中茶原52",
        "latitude": "35.319122",
        "longitude": "136.787217"
    },
    {
        "No.": "488",
        "共通ID": "E2320300018202",
        "name": "今伊勢小学校グラウンド",
        "address": "愛知県一宮市今伊勢町新神戸字乾26",
        "latitude": "35.321591",
        "longitude": "136.793501"
    },
    {
        "No.": "489",
        "共通ID": "E2320300019202",
        "name": "今伊勢西小学校グラウンド",
        "address": "愛知県一宮市今伊勢町馬寄字西平4-1",
        "latitude": "35.324155",
        "longitude": "136.783533"
    },